id,iddepto,nomdepto,idmpio,nompio,codigohabilitacion,nombre,nitsnit,ese,direccion,direccionorig,telefono,najunombre,numerosedeprincipal,latitude,longitude,Localidad
1,11,Bogotá D.C,11001,BOGOTÁ,"1,100,100,032",COOPERATIVA PARA LA SALUD ORAL ORALCOOP,"830,000,001",NO,CARRERA 64 100-55,CARRERA 64 100-55,5330539-3134241468,Privada,1,4.5977908,-74.1552055,Ciudad Bolivar
2,11,Bogotá D.C,11001,BOGOTÁ,"1,100,100,103",INSTITUTO NACIONAL DEL RIÑON LTDA,"800,241,339",NO,CLL 43 # 25 - 61,CLL 43 # 25 - 61,4391270,Privada,1,4.6536482,-74.1007801,Teusaquillo
3,11,Bogotá D.C,11001,BOGOTÁ,"1,100,100,130",INVERSIONES DAMA SALUD SAS,"830,108,482",NO,CARRERA 15 No. 95-18/22 LC 1 - Barrio:CHICO NORTE,CARRERA 15 No. 95-18/22 LC 1 - Barrio:CHICO NORTE,3144311,Privada,23,4.7055644,-74.0426829,Usaquén
4,11,Bogotá D.C,11001,BOGOTÁ,"1,100,100,203",FUNDACION CEPYTIN,"830,111,502",NO,CRA 73 No 7 C - 39,CRA 73 No 7 C - 39,2921430,Privada,1,4.639183,-74.138618,Kennedy
6,11,Bogotá D.C,11001,BOGOTÁ,"1,100,100,224",ETICA ORAL LIMITADA,"800,176,600",NO,CL 127 No 19A -44/62  P2 CONS 202-203 ACOMEDICA 2,CL 127 No 19A -44/62  P2 CONS 202-203 ACOMEDICA 2,6025050,Privada,1,4.625436,-74.1291301,Kennedy
7,11,Bogotá D.C,11001,BOGOTÁ,"1,100,100,356",BIONUCLEAR S.A.S,"800,224,466",NO,"AK 45 # 106 30 OFICINA 204, CONSULTORIO 201 Y 209","AK 45 # 106 30 OFICINA 204, CONSULTORIO 201 Y 209",6207838 - 7521203,Privada,1,4.6938583,-74.0555222,Usaquén
8,11,Bogotá D.C,11001,BOGOTÁ,"1,100,100,396",CLINICA RETORNAR SAS,"800,160,827",NO,AK 20 87 33,AK 20 87 33,7957100,Privada,1,4.6749673,-74.0595563,Barrios Unidos
9,11,Bogotá D.C,11001,BOGOTÁ,"1,100,100,483",SALUD INTEGRAL EL LAGO LTDA,"830,014,375",NO,CL 79 # 18 34 CS 506,CL 79 # 18 34 CS 506,8056234,Privada,1,4.7161324,-74.1185484,Engativá
10,11,Bogotá D.C,11001,BOGOTÁ,"1,100,100,518",OPTICA COLOMBIANA S.A.S,"860,001,449",NO,KR 12 82 02 LC 208 - Barrio:CHICO N,KR 12 82 02 LC 208 - Barrio:CHICO N,2369824,Privada,10,4.5672951,-74.1065687,Rafael Uribe Uribe
11,11,Bogotá D.C,11001,BOGOTÁ,"1,100,100,592",UNIDAD RADIOLOGICA DENTO CRANEO MAXILO FACIAL S.A.,"860,401,032",NO,CL 125 No. 20 - 70 OF 204,CL 125 No. 20 - 70 OF 204,2153469 - 3226313167,Privada,1,4.7066399,-74.0619617,Suba
12,11,Bogotá D.C,11001,BOGOTÁ,"1,100,100,616",CENTRO DE ENFERMEDADES DIGESTIVAS SAS,"830,027,806",NO,CRA 16 # 84 A 09 OFICINA 311 CONSULTORIO 3,CRA 16 # 84 A 09 OFICINA 311 CONSULTORIO 3,6427200,Privada,1,4.5902581,-74.0944554,Antonio Nariño
13,11,Bogotá D.C,11001,BOGOTÁ,"1,100,100,661",LITOMEDICA S.A,"800,048,880",NO,CRA 13 # 49 40 CONS 620,CRA 13 # 49 40 CONS 620,2851754-3380054-2883109,Privada,1,4.5592249,-74.1314313,Tunjuelito
14,11,Bogotá D.C,11001,BOGOTÁ,"1,100,100,670",FUNDACION PARA LA REHABILITACION DE ALCOHOLICOS Y ADICTOS-FUNDAR,"860,039,431",NO,CRA 16 # 36 22,CRA 16 # 36 22,2454710,Privada,1,4.6251001,-74.0707635,Teusaquillo
15,11,Bogotá D.C,11001,BOGOTÁ,"1,100,100,731",PREMISALUD S.A.,"830,088,332",NO,"CALLE 24 D # 40 - 13 PISO 1 CONSULTORIOS 101, 102, 103, 104, 105, 106, 107, 108, 109, 110 PISO 2 CONSULTORIOS 201, 202, 203, 204, 205, 206, 207, 208, 209, 210, 211, 212, 213, 214, 215 PISO 3 CONSULTORIOS 301, 302, 303, 304, 305, 306.","CALLE 24 D # 40 - 13 PISO 1 CONSULTORIOS 101, 102, 103, 104, 105, 106, 107, 108, 109, 110 PISO 2 CONSULTORIOS 201, 202, 203, 204, 205, 206, 207, 208, 209, 210, 211, 212, 213, 214, 215 PISO 3 CONSULTORIOS 301, 302, 303, 304, 305, 306.",2730475,Privada,3,4.6260332,-74.0856267,Teusaquillo
16,11,Bogotá D.C,11001,BOGOTÁ,"1,100,100,732",OPTICA DR MENDEZ S A S,"860,513,677",NO,CRA 13 # 42 08,CRA 13 # 42 08,2859753,Privada,1,4.5592249,-74.1314313,Tunjuelito
17,11,Bogotá D.C,11001,BOGOTÁ,"1,100,100,733",CEUSA CENTRO DE ESPECIALISTAS EN UROLOGIA S A,"800,167,228",NO,CARRERA 16 NO. 84A - 09 OFICINA 419,CARRERA 16 NO. 84A - 09 OFICINA 419,6217017- 3166929389,Privada,5,4.5902581,-74.0944554,Antonio Nariño
18,11,Bogotá D.C,11001,BOGOTÁ,"1,100,100,855",OPTIVISION SAS,"860,522,344",NO,CALLE 62 # 11 04  LOCAL 6,CALLE 62 # 11 04  LOCAL 6,2127906,Privada,1,4.64866,-74.0627834,Chapinero
20,11,Bogotá D.C,11001,BOGOTÁ,"1,100,100,930","FUNDACION CENTRO DE INVESTIGACION E INFORMACION EN DEFICIENCIAS AUDITIVAS-""""CINDA""""""","800,223,876",NO,CALLE 35 No. 17-24,CALLE 35 No. 17-24,5104341- 5106499- 5103829,Privada,1,4.624513650000001,-74.07234911408987,Teusaquillo
21,11,Bogotá D.C,11001,BOGOTÁ,"1,100,100,997","ASOCIACION CENTRO DE ATENCION PARA NIÑOS CON TRASTORNOS SENSORIOMOTORES """"ACONIÑO""""""","800,175,839",NO,CALLE 127 B # 45-28,CALLE 127 B # 45-28,6508473,Privada,1,4.7181199,-74.0913868,Suba
22,11,Bogotá D.C,11001,BOGOTÁ,"1,100,101,010",INVERSIONES EN RECREACION DEPORTE Y SALUD S.A. Sigla: BODYTECH S.A.,"830,033,206",NO,carrera 19 B # 83-11,carrera 19 B # 83-11,7442222- EXT 40257 CELULAR 3213046169,Privada,1,4.5595465,-74.1435493,Ciudad Bolivar
23,11,Bogotá D.C,11001,BOGOTÁ,"1,100,101,052",RED COLOMBIANA DE MEDICINA GENETICA SAS  PREGEN,"800,028,714",NO,CRA 15A No 106-42,CRA 15A No 106-42,6293877,Privada,1,4.6483757,-74.0664877,Teusaquillo
24,11,Bogotá D.C,11001,BOGOTÁ,"1,100,101,085",MEDICOS CARDIOLOGOS ASOCIADOS MEDICARDIA LTDA,"800,081,086",NO,CRA 16 # 82 74 CONS 417- 419,CRA 16 # 82 74 CONS 417- 419,6919349 - 3203069506,Privada,1,4.5902581,-74.0944554,Antonio Nariño
26,11,Bogotá D.C,11001,BOGOTÁ,"1,100,101,158",PATOLAB RX LTDA,"800,145,502",NO,KR 19C 90-14 CONSULTORIO 308-309,KR 19C 90-14 CONSULTORIO 308-309,3103075205,Privada,1,4.5599382,-74.1501183,Ciudad Bolivar
27,11,Bogotá D.C,11001,BOGOTÁ,"1,100,101,287",CLINICA MEDICO OFTALMOLOGICA DEL NIÑO Y DEL ADULTO S.A.S,"830,049,044",NO,DG 40 A BIS # 14 79 primer y segundo piso,DG 40 A BIS # 14 79 primer y segundo piso,2329110 -2329103 -3202497,Privada,1,4.6303061,-74.0712758,Teusaquillo
28,11,Bogotá D.C,11001,BOGOTÁ,"1,100,101,288",ORDEN MINISTROS DE LOS ENFERMOS,"860,013,635",NO,CARRERA 15 ESTE No. 69 - 60 SUR,CARRERA 15 ESTE No. 69 - 60 SUR,2072124,Privada,1,4.5167435,-74.0898378,Usme
30,11,Bogotá D.C,11001,BOGOTÁ,"1,100,101,435",CENTRO DE ANGIOLOGIA Y CIRUGIA VASCULAR LTDA,"800,232,254",,KR 13 # 49 40 CS 425,KR 13 # 49 40 CS 425,2320052,Privada,1,4.5592249,-74.1314313,Tunjuelito
31,11,Bogotá D.C,11001,BOGOTÁ,"1,100,101,443",OFTALMOS S.A.,"860,006,626",NO,AC 100 No. 18 A 51,AV 100 No. 18 A 51,2187077 ext 326,Privada,1,4.6844387,-74.0466643,Usaquén
32,11,Bogotá D.C,11001,BOGOTÁ,"1,100,101,579",SOCIEDAD PEDIATRICA DE LOS ANDES S.A.S - SPLA S.A.S.,"830,071,938",NO,"Carrera 48 # 94-19 Pisos 0, 1, 2, 3 y 4","Carrera 48 # 94-19 Pisos 0, 1, 2, 3 y 4",6107242 - 3166952786,Privada,1,4.5745894,-74.1579538,Ciudad Bolivar
33,11,Bogotá D.C,11001,BOGOTÁ,"1,100,101,582",LABORATORIO VASCULAR ECOLAB Y COMPAÑIA LIMITADA,"830,017,706",NO,KR 18 # 84 11 CS 603,KR 18 # 84 11 CS 603,6100818,Privada,1,4.5770806,-74.1142508,Rafael Uribe Uribe
34,11,Bogotá D.C,11001,BOGOTÁ,"1,100,101,600",CARDIOLOG LABORATORIO DE CARDIOLOGIA INTEGRAL LIMITADA,"800,167,356",,AC 127 # 20 78  CS 409 y 411,AC 127 # 20 78  CS 409 y 411,2593531-6156908,Privada,1,4.7040181,-74.0344695,Usaquén
35,11,Bogotá D.C,11001,BOGOTÁ,"1,100,101,624",MEDICANESTESIA S.A,"860,350,624",NO,AK 9 # 116 20 CS 722 - 728 - 740,Avenida 9 # 116 20 CS 722 - 728 - 740,6122362,Privada,1,4.7601781,-74.03148,Usaquén
36,11,Bogotá D.C,11001,BOGOTÁ,"1,100,101,640",CENTRO DE ENDOCRINOLOGIA Y ENFERMEDADES METABOLICAS LTDA,"800,217,248",NO,CRA. 16 No. 84A  - 09 Cons. 712,CRA. 16 No. 84A  - 09 Cons. 712,6228762,Privada,1,4.5902581,-74.0944554,Antonio Nariño
37,11,Bogotá D.C,11001,BOGOTÁ,"1,100,101,693",UNIDAD DE NEUROLOGIA LTDA,"800,236,932",NO,KR 16 # 84 A 09 CS 523,KR 16 # 84 A 09 CS 523,6217517,Privada,1,4.5902581,-74.0944554,Antonio Nariño
38,11,Bogotá D.C,11001,BOGOTÁ,"1,100,101,746",MEDICINA MATERNO FETAL DEL COUNTRY LTDA,"830,062,358",NO,KR 16 # 82 95 CS 303b,KR 16 # 82 95 CS 303b,2184774,Privada,1,4.5902581,-74.0944554,Antonio Nariño
39,11,Bogotá D.C,11001,BOGOTÁ,"1,100,101,751",ALARCON FORERO SOCIEDAD DE MEDICINA DEPORTIVA LTDA AF MEDICINA DEPORTIVA LTDA,"830,113,969",NO,calle 106    No. 17 a  58,calle 106    No. 17 a  58,6372424,Privada,1,4.5058523,-74.1122161,Usme
41,11,Bogotá D.C,11001,BOGOTÁ,"1,100,101,813",CENTRO NEUROLOGICO DE BOGOTA LIMITADA,"860,353,671",NO,Carrera 16 No.82-95 Consultorio 606,Carrera 16 No.82-95 Consultorio 606,6108069,Privada,1,4.5902581,-74.0944554,Antonio Nariño
42,11,Bogotá D.C,11001,BOGOTÁ,"1,100,101,814",CENTRO DE ENFERMEDADES MAMARIAS LTDA,"800,153,488",NO,"Cra 16 # 82-47 Cons 502 A, 502 B y Pisos 6 y 7","Cra 16 # 82-47 Cons 502 A, 502 B y Pisos 6 y 7",6910851  3153652639,Privada,1,4.5902581,-74.0944554,Antonio Nariño
43,11,Bogotá D.C,11001,BOGOTÁ,"1,100,101,824",INSTITUTO OFTALMOLOGICO SALAMANCA S.A IOSAL,"830,053,297",NO,CRA 18 # 79 32,CRA 18 # 79 32,6102088,Privada,1,4.66653005,-74.05895596671019,Chapinero
44,11,Bogotá D.C,11001,BOGOTÁ,"1,100,101,847",INSTITUTO AMERICANO DE OFTALMOLOGIA S.A.S,"800,229,839",NO,KR 15 # 88-20 PISO 2,KR 15 # 88-20 PISO 2,2573064 - 2566081,Privada,1,4.7055644,-74.0426829,Usaquén
45,11,Bogotá D.C,11001,BOGOTÁ,"1,100,101,935",FUNDACION LIGA CENTRAL CONTRA LA EPILEPSIA,"860,076,321",NO,CALLE 35 # 17 48,CALLE 35 # 17 48,3272360-2455717-7487058-3223047602,Privada,1,4.6245996,-74.07246494403242,Teusaquillo
46,11,Bogotá D.C,11001,BOGOTÁ,"1,100,101,969",FISIOTERPIA AVANZADA S.A.S,"830,089,444",NO,AVENIDA CARRERA 45 N° 104 - 60 Interior 2 Piso 1,AVENIDA CARRERA 45 N° 104 - 60 Interior 2 Piso 1,3228938355,Privada,1,4.7364014,-74.0485756,Usaquén
47,11,Bogotá D.C,11001,BOGOTÁ,"1,100,101,990",CORPORACION SINDROME DE DOWN,"800,037,619",NO,CARRERA 49 # 99 - 10,CARRERA 49 # 99 - 10,3125226979,Privada,1,4.7014088,-74.0584385,Suba
48,11,Bogotá D.C,11001,BOGOTÁ,"1,100,101,995",LABORATORIO DE OTONEUROLOGIA - INSTITUTO NACIONAL DE OTOLOGIA GARCIA GOMEZ SAS,"800,173,625",NO,AV. CR 9 NO 116 - 20 CONSULTORIO. 219  219 A- 219 B,AV. CR 9 NO 116 - 20 CONSULTORIO. 219  219 A- 219 B,3143168254-3161689,Privada,1,4.7601781,-74.03148,Usaquén
49,11,Bogotá D.C,11001,BOGOTÁ,"1,100,101,996",UNIDAD MEDICO QUIRÚRGICA DE ORL SAS SIGLA UNIMEQ ORL SAS,"860,509,323",NO,AK 9 # 116 20 CS  207 211 213  215 217 221,AV 9 # 116 20 CS  207 211 213  215 217 221,7396139 - 3118995244,Privada,1,4.7601781,-74.03148,Usaquén
51,11,Bogotá D.C,11001,BOGOTÁ,"1,100,102,130",DENTIFACIL LTDA,"830,100,571",NO,AK 19 # 118 95 OF 202,AV 19 # 118 95 OF 202,4673903-4673696,Privada,1,4.7004763,-74.0498529,Usaquén
52,11,Bogotá D.C,11001,BOGOTÁ,"1,100,102,166",REHABILITANDO SAS,"830,018,645",NO,AV SUBA N°  115  58 TORRE A CONSULTORIOS  202 -  212 -  213,AV SUBA N°  115  58 TORRE A CONSULTORIOS  202 -  212 -  213,6247141-3112408797,Privada,1,4.6741323,-74.0674637,Barrios Unidos
53,11,Bogotá D.C,11001,BOGOTÁ,"1,100,102,297",ODONTEQ LIMITADA,"830,101,814",NO,"CRA 71 D No 6- 94 SUR LC 35 - 06 , 35-07.","CRA 71 D No 6- 94 SUR LC 35 - 06 , 35-07.",2619407,Privada,1,4.5857678,-74.1631065,Ciudad Bolivar
55,11,Bogotá D.C,11001,BOGOTÁ,"1,100,102,324",DIAGNOSTICO OCULAR DEL COUNTRY SAS,"830,079,022",NO,KR 16 # 82 95 CS 702,KR 16 # 82 95 CS 702,6110978 - 2362926,Privada,1,4.5902581,-74.0944554,Antonio Nariño
56,11,Bogotá D.C,11001,BOGOTÁ,"1,100,102,334",RADIOLOGIA  Y MEDICINA NUCLEAR DE LA SABANA SAS RADIONUCLEAR SAS,"800,033,745",NO,AK 7 # 119 14 CONS 110,AK 7 # 119 14 CONS 110,2157375,Privada,1,4.6907748,-74.0341986,Usaquén
58,11,Bogotá D.C,11001,BOGOTÁ,"1,100,102,351",SOCIEDAD DE ANESTESIOLOGOS DEL COUNTRY S.A.,"860,032,625",NO,Carrera 16 82-51 CONSULTORIO 402,Carrera 16 82-51 CONSULTORIO 402,6183426,Privada,1,4.5902581,-74.0944554,Antonio Nariño
59,11,Bogotá D.C,11001,BOGOTÁ,"1,100,102,404",INSTITUTO DE DIAGNOSTICO MEDICO S.A.,"800,065,396",NO,CL 76 # 13 - 46,CL 76 # 13 - 46,3438770,Privada,1,4.7055789,-74.1101337,Engativá
60,11,Bogotá D.C,11001,BOGOTÁ,"1,100,102,450",DIAGNOSTICOS E IMAGENES SAS,"830,092,718",NO,AC 127 NO. 15A-55 CS 4 Y 5 - Barrio:SANTA BARBARA,AC 127 NO. 15A-55 CS 4 Y 5 - Barrio:SANTA BARBARA,5801125,Privada,4,4.7036464,-74.0331045,Usaquén
61,11,Bogotá D.C,11001,BOGOTÁ,"1,100,102,457",SOCIEDAD DE OFTALMOLOGIA EDUARDO ARENAS ARCHILA EU,"860,048,345",NO,CRA 21 # 100 -20 CS 701,CRA 21 # 100 -20 CS 701,6111711,Privada,1,9.2910351,-75.383985,
62,11,Bogotá D.C,11001,BOGOTÁ,"1,100,102,539",CENTRO OFTALMOLOGICO DE LASER SAS SIGLA COLASER SAS,"800,146,271",NO,CL  93 # 15 51 OF 310 y 206-1,CL  93 # 15 51 OF 310 y 206-1,6185414,Privada,1,4.7137644,-74.0958458,Engativá
63,11,Bogotá D.C,11001,BOGOTÁ,"1,100,102,540",INTEGRA MEDICA COLOMBIA SA,"830,003,807",NO,CRA 14 No 127-11 CON 303 MEZANINE PISO 1,CRA 14 No 127-11 CON 303 MEZANINE PISO 1,6146975-6147078-3108087950,Privada,1,4.6754389,-74.0512977,Chapinero
64,11,Bogotá D.C,11001,BOGOTÁ,"1,100,102,545",CENTRO DE TECNOLOGIA OFTALMICA  S.A.S.  Y PODRÁ UTILIZAR LA SIGLA CTO S.A.S,"860,352,594",NO,CL 98 N° 15 - 28 - Barrio:CHICO NORTE,CL 98 N° 15 - 28 - Barrio:CHICO NORTE,7429167 - 3144582408,Privada,3,4.6879351,-74.069226,Barrios Unidos
65,11,Bogotá D.C,11001,BOGOTÁ,"1,100,102,622",SOCIEDAD DE ENFERMERAS PROFESIONALES SAS - SEP SAS,"860,400,547",NO,Carrera 18 No 140 - 53,Carrera 18 No 140 - 53,7420842,Privada,1,4.5770806,-74.1142508,Rafael Uribe Uribe
66,11,Bogotá D.C,11001,BOGOTÁ,"1,100,102,654",EMPRESA SOCIAL DEL ESTADO CENTRO DERMATOLOGICO FEDERICO LLERAS ACOSTA,"800,247,350",SI,CLL 1a. No. 13A - 61,Avenida 1a. No. 13A - 61,912428160,Pública,1,4.5962655,-74.1026468,Los Mártires
68,11,Bogotá D.C,11001,BOGOTÁ,"1,100,102,894",CIRULASER ANDES S.A,"800,112,384",NO,AK 9 # 116 20 LC 108 CS 312,AV  9 # 116 20 LC 108 CS 312,6373911 - 3134114971,Privada,1,4.7601781,-74.03148,Usaquén
69,11,Bogotá D.C,11001,BOGOTÁ,"1,100,102,929",INPAT INVESTIGACIONES EN PATOLOGIA  LTDA,"830,074,609",NO,CL 83 # 19 36 CS 504,CL 83 # 19 36 CS 504,6115287,Privada,1,4.6700461,-74.0596304,Chapinero
70,11,Bogotá D.C,11001,BOGOTÁ,"1,100,103,016",INSTITUTO DE CORNEA S A S,"800,089,364",NO,KR 7 A # 121 36 PRIMER PISO,KR 7 A # 121 36 PRIMER PISO,6128426,Privada,1,4.769857,-74.0279152,Usaquén
71,11,Bogotá D.C,11001,BOGOTÁ,"1,100,103,020",CENTRO DE EVALUACION MEDICA PORVIDA LIMITADA La sociedad podra usar la sigla CEM PORVIDA,"830,066,635",NO,Av. Calle 9 # 50 15 Local C1060,Av. Calle 9 # 50 15 Local C1060,5640026 - 3125890196,Privada,1,4.6277609,-74.1078247,Puente Aranda
72,11,Bogotá D.C,11001,BOGOTÁ,"1,100,103,031",MEDICA MAGDALENA SAS,"860,502,092",NO,CALLE 39 # 14 34,CALLE 39 # 14 34,2853900-3132820481,Privada,1,4.6276573,-74.0774418,Teusaquillo
73,11,Bogotá D.C,11001,BOGOTÁ,"1,100,103,035",EXILASER S.A,"830,002,198",NO,"CRA 16 # 84A 09 CONS 719, 720, 721","CRA 16 # 84A 09 CONS 719, 720, 721",3715290-6217556-3112598937,Privada,1,4.5902581,-74.0944554,Antonio Nariño
74,11,Bogotá D.C,11001,BOGOTÁ,"1,100,103,071",CENTRO MEDICO DE ORIENTACION LA GLORIA S.A.S SIGLA IPS LA GLORIA S.A.S,"830,062,334",NO,CALLE 34 # 15 51,CALLE 34 # 15 51,3402120,Privada,1,4.6247088,-74.0789546,Teusaquillo
75,11,Bogotá D.C,11001,BOGOTÁ,"1,100,103,107",OPTICA APOLO S A S,"830,051,898",NO,AK 58 # 127 59 LC 1-57,AK 58 # 127 59 LC 1-57,2263748,Privada,1,4.7172493,-74.0692353,Suba
76,11,Bogotá D.C,11001,BOGOTÁ,"1,100,103,113",PANORAMAX LTDA,"800,174,947",NO,CALLE 49 # 9 21 PISO 1,CALLE 49 # 9 21 PISO 1,3384312,Privada,1,4.6359613,-74.0649014347266,Chapinero
77,11,Bogotá D.C,11001,BOGOTÁ,"1,100,103,119",CAJA DE COMPENSACION FAMILIAR DE CUNDINAMARCA COMFACUNDI,"860,045,904",NO,CL 53 # 10 39 PI 2,CL 53 # 10 39 PI 2,3481248 Extension 202,Privada,1,4.6398327,-74.06460235167646,Chapinero
78,11,Bogotá D.C,11001,BOGOTÁ,"1,100,103,155",ASOCIACION DE AMIGOS CONTRA EL CANCER PROSEGUIR,"830,090,073",NO,CARRERA 16 No 59-04 / 54 - Barrio:CHAPINERO,CARRERA 16 No 59-04 / 54 - Barrio:CHAPINERO,5557080 EXT 1026,Privada,5,4.5902581,-74.0944554,Antonio Nariño
79,11,Bogotá D.C,11001,BOGOTÁ,"1,100,103,161",CORPORACION OTOLOGIA INVESTIGACION REHABILITACION OIR,"860,079,711",NO,CARRERA 13 # 63 - 39 OF. 604,CARRERA 13 # 63 - 39 OF. 604,3133906101 - 3015783559,Privada,1,4.65002285,-74.06395579296755,Chapinero
80,11,Bogotá D.C,11001,BOGOTÁ,"1,100,103,183",ASOCIADOS EN REPRODUCCION HUMANA SAS,"830,084,207",NO,CL 134 # 7 B 83 CS 708,CL 134 # 7 B 83 CS 708,6274066,Privada,1,4.742783,-74.125321,Suba
81,11,Bogotá D.C,11001,BOGOTÁ,"1,100,103,209",OBGYN S.A.S,"800,146,637",,CARRERA 19 A NO. 82 85 CONSULTORIO 801,CARRERA 19 A NO. 82 85 CONSULTORIO 801,6358057 - 6215670,Privada,1,4.5589394,-74.1483859,Ciudad Bolivar
82,11,Bogotá D.C,11001,BOGOTÁ,"1,100,103,266",RADIOTERAPIA ONCOLOGIA MARLY S.A,"800,067,908",NO,CRA 9 # 49 22,CRA 9 # 49 22,2878154 Ext 106,Privada,1,4.636552050000001,-74.0643622627841,Chapinero
83,11,Bogotá D.C,11001,BOGOTÁ,"1,100,103,270",SERVICIO DE INMUNOANALISIS DE BOGOTA LTDA-SIB LAB LTDA,"800,123,007",NO,CALLE 50 # 8 24 CONS 306 307,CALLE 50 # 8 24 CONS 306 307,3100186,Privada,1,4.6374749,-74.0669591,Teusaquillo
84,11,Bogotá D.C,11001,BOGOTÁ,"1,100,103,279",EVOLUCIONAR SERVICIOS DE SALUD SAS,"830,040,404",NO,CL 95  No. 11-51 of. 201-204,CL 95  No. 11-51 of. 201-204,3138542565,Privada,1,4.6904079,-74.0790637,Suba
85,11,Bogotá D.C,11001,BOGOTÁ,"1,100,103,323",MAGBA NEURODIGITAL S.A.S,"830,078,811",NO,CARRERA 16A # 82-46 CONSULTORIO 711,CARRERA 16A # 82-46 CONSULTORIO 711,5313807,Privada,1,4.7473303,-74.0378721,Usaquén
86,11,Bogotá D.C,11001,BOGOTÁ,"1,100,103,338",FUNDACION SANTA MARIA,"860,006,805",NO,AK 50 No 90-50,AK 50 No 90-50,2568336,Privada,1,4.6845786,-74.0621336,Barrios Unidos
87,11,Bogotá D.C,11001,BOGOTÁ,"1,100,103,371",ORTHO WAVE COLOMBIA LTDA- OWC LTDA,"830,075,393",NO,AC 134 # 7 B 83 OF 122 CS 4,AC 134 # 7 B 83 OF 122 CS 4,5200010,Privada,1,4.71144255,-74.03107490323647,Usaquén
88,11,Bogotá D.C,11001,BOGOTÁ,"1,100,103,389",UNIDAD MEDICA BIOCENTER LIMITADA,"830,049,428",NO,CL 53 B # 24 80 CS 401,CL 53 B # 24 80 CS 401,3124356534,Privada,1,4.6435905,-74.0761533,Teusaquillo
89,11,Bogotá D.C,11001,BOGOTÁ,"1,100,103,450",UNIDAD DE LABORATORIOS ESPECIALIZADA S.A.S. SIGLA: ZEPHIA 1-A S.A.S.,"830,104,405",NO,Calle  92 # 15 62 LOCAL 106,Calle  92 # 15 62 LOCAL 106,2369988,Privada,1,4.6810737,-74.0663246,Barrios Unidos
90,11,Bogotá D.C,11001,BOGOTÁ,"1,100,103,543",FOTOTERAPIA BOJANINI Y LOPEZ SAS,"800,236,964",NO,CL 125 # 19 89 OFIC 404,CL 125 # 19 89 OFIC 404,3003303,Privada,1,4.7066399,-74.0619617,Suba
91,11,Bogotá D.C,11001,BOGOTÁ,"1,100,103,579",CENTRO OCULAR DE MIOPIA DR. RINCON SOCIEDAD POR ACCIONES SIMPLIFICADAS S A S,"830,102,932",NO,AV CR 19 103 21,AV CR 19 103 21,6107771,Privada,1,4.5621909,-74.1390913,Ciudad Bolivar
92,11,Bogotá D.C,11001,BOGOTÁ,"1,100,103,694",UROBOSQUE S.A,"830,058,292",NO,AC 134 No. 7- 83 TO 3 PI 6 MD 361,AC 134 No. 7- 83 TO 3 PI 6 MD 361,6482254 - 3178929377,Privada,1,4.7143814,-74.0379997,Usaquén
93,11,Bogotá D.C,11001,BOGOTÁ,"1,100,103,708",OPTILASER S.A,"830,020,842",NO,"Carrera 16 # 97-46 Torre B, consultorio 704. Edificio Torre 97","Carrera 16 # 97-46 Torre B, consultorio 704. Edificio Torre 97",7436009 ext 123 - 3184941364,Privada,2,4.6754953,-74.05352,Chapinero
95,11,Bogotá D.C,11001,BOGOTÁ,"1,100,103,916",FUNDACION OFTALMOLOGICA NACIONAL,"860,048,656",NO,CALLE 50 # 13 50,CALLE 50 # 13 50,3487349,Privada,1,4.6373988,-74.0660779,Chapinero
96,11,Bogotá D.C,11001,BOGOTÁ,"1,100,103,973",LABOPAT SAS Y/O LABOPAT LABORATORIO CLINICO PATOLOGIA Y CITOLOGIA SAS,"800,133,151",NO,CARRERA 13A No. 96-83 Piso 2 y 3,CARRERA 13A No. 96-83 Piso 2 y 3,7452555-3153626293,Privada,1,4.7618301,-74.0351527,Usaquén
97,11,Bogotá D.C,11001,BOGOTÁ,"1,100,103,975",CENTRO MEDICO LA FACULTAD SAS,"800,197,167",NO,CRA 18 sur No. 56A-50,CRA 18 sur No. 56A-50,7608414 - 2059235 - 3132416725,Privada,1,4.5481649,-74.1436625,Ciudad Bolivar
99,11,Bogotá D.C,11001,BOGOTÁ,"1,100,104,014",PROCREACION MEDICAMENTE ASISTIDA LTDA,"830,014,121",NO,CALLE 50 # 7 36 PI 6,CALLE 50 # 7 36 PI 6,3481116,Privada,1,4.6675992,-74.1079652,Engativá
100,11,Bogotá D.C,11001,BOGOTÁ,"1,100,104,035",UNIDAD MEDICA Y DE DIAGNOSTICO S.A,"830,001,007",NO,AK 45 NO. 122 - 96 PISOS 1-2-4 - Barrio:SANTA BARBARA,AK 45 NO. 122 - 96 PISOS 1-2-4 - Barrio:SANTA BARBARA,7565656 EXT 6557 - 3182403356,Privada,21,4.7364014,-74.0485756,Usaquén
102,11,Bogotá D.C,11001,BOGOTÁ,"1,100,104,131",FUNDACION  HOSPITAL SAN CARLOS,"860,007,373",NO,KR 12D  32 44 SUR,KR 12D  32 44 SUR,7443333,Privada,1,4.5848832,-74.0938118,Antonio Nariño
103,11,Bogotá D.C,11001,BOGOTÁ,"1,100,104,148",INSTITUTO VASCULAR ANDINO LTDA,"830,023,826",NO,Av. Calle 127 N°21-60 CS 225 Sala I,Av. Calle 127 N°21-60 CS 225 Sala I,2589133,Privada,1,4.7103004,-74.0795017,Suba
104,11,Bogotá D.C,11001,BOGOTÁ,"1,100,104,155",FUNDACION CENTRO DE ESTIMULACION NIVELACION Y DESARROLLO-CEDESNID,"860,071,892",NO,AVENIDA CARRERA 45 #95-29,AVENIDA CARRERA 45 #95-29,2113155,Privada,2,4.7364014,-74.0485756,Usaquén
105,11,Bogotá D.C,11001,BOGOTÁ,"1,100,104,166",CENTRO INTEGRAL DE REHABILITACION COLOMBIA - CIREC,"860,066,767",NO,KR 54 # 65 25,KR 54 # 65 25,7953600- 3118542905,Privada,1,4.6333622,-74.1058623,Puente Aranda
106,11,Bogotá D.C,11001,BOGOTÁ,"1,100,104,261",INSTITUTO DE ESTUDIOS CIENTIFICOS EN ODONTOLOGIA S.A SIGLA IECO,"830,017,652",NO,Carrera 19-80-74 - Barrio:COUNTRY,Carrera 19-80-74 - Barrio:COUNTRY,7455560-3118980208,Privada,5,4.5397167,-74.1514746,Ciudad Bolivar
107,11,Bogotá D.C,11001,BOGOTÁ,"1,100,104,311",CENTRO CARDIOLOGICO DE BOGOTA LTDA,"800,067,605",,KR 16 # 82 36,KR 16 # 82 36,6104522--5314346--6164816,Privada,1,4.5902581,-74.0944554,Antonio Nariño
108,11,Bogotá D.C,11001,BOGOTÁ,"1,100,104,321",LABORATORIO PATOLOGICO DR. J. HERNAN ZARATE GALEANO LTDA,"800,195,827",NO,KR. 19 C Nº 90-14 CS. 501,KR. 19 C Nº 90-14 CS. 501,6103925,Privada,1,4.5599382,-74.1501183,Ciudad Bolivar
109,11,Bogotá D.C,11001,BOGOTÁ,"1,100,104,400",CONSULTORIO MÉDICO VICENTE DE PAUL,"860,048,128",,CALLE 66 #27 a 26,CALLE 66 #27 a 26,6306942,Privada,1,4.6782076,-74.0969736,Engativá
112,11,Bogotá D.C,11001,BOGOTÁ,"1,100,104,471",INVERSIONES DENTALES SANTANDER S.A.S,"830,028,950",NO,AV BOYACA # 51 92 LOCAL 101 102,AV BOYACA # 51 92 LOCAL 101 102,5489744,Privada,1,4.681783,-74.0988931,Engativá
113,11,Bogotá D.C,11001,BOGOTÁ,"1,100,104,472",AUDIOEQUIPOS SAS,"800,077,642",NO,KR 48 # 91-52,KR 48 # 91-52,6210478 - 3174013472 - 3152537288,Privada,1,4.6999481,-74.0583472,Suba
114,11,Bogotá D.C,11001,BOGOTÁ,"1,100,104,488",COUNTRY SCAN LTDA,"800,006,509",NO,KR 16A # 82-37 P2,KR 16A # 82-37 P2,3797910 - 3797940,Privada,1,4.6720816,-74.0556902,Chapinero
115,11,Bogotá D.C,11001,BOGOTÁ,"1,100,104,490",RESONANCIA MAGNETICA DEL COUNTRY S.A.,"830,070,284",NO,Carrera 16 A No. 82-37 PISO 2,Carrera 16 A No. 82-37 PISO 2,3797910 - 3797940,Privada,1,4.6720816,-74.0556902,Chapinero
116,11,Bogotá D.C,11001,BOGOTÁ,"1,100,104,529",SOCIEDAD DE MEDICINA REPRODUCTIVA SAS,"800,227,333",NO,AK 9 # 116 20  CS 404-410-414-415 A- 416-428- OF 302,AK 9 # 116 20  CS 404-410-414-415 A- 416-428- OF 302,2151807 - 3138166014,Privada,1,4.7601781,-74.03148,Usaquén
117,11,Bogotá D.C,11001,BOGOTÁ,"1,100,104,570",LABORATORIO DE GENETICA Y BIOLOGIA MOLECULAR LTDA,"830,061,421",NO,AC 134 No 7B - 83 Consultorio 123,AC 134 No 7B - 83 Consultorio 123,8052971 - 6257383,Privada,1,4.71144255,-74.03107490323647,Usaquén
119,11,Bogotá D.C,11001,BOGOTÁ,"1,100,104,769",RESONANCIA MAGNETICA DE COLOMBIA LTDA.,"800,032,418",NO,Carrera 16 A No. 82-37 PISO 2,Carrera 16 A No. 82-37 PISO 2,3797910 - 3797940,Privada,1,4.6720816,-74.0556902,Chapinero
120,11,Bogotá D.C,11001,BOGOTÁ,"1,100,104,857",ESTUDIOS E INVERSIONES  MEDICAS S A ESIMED S A,"800,215,908",NO,AK 19 No. 106 -30 - Barrio:SAN PATRICIO,AVENIDA 19 No. 106 -30 - Barrio:SAN PATRICIO,3008960749 - 3002878916 - 7957155 Extensión 1607,Privada,14,4.5621909,-74.1390913,Ciudad Bolivar
121,11,Bogotá D.C,11001,BOGOTÁ,"1,100,104,870",ASONEST SAS,"800,151,077",NO,AC 127 # 21 60 CS 218,AC 127 # 21 60 CS 218,6158788,Privada,1,4.7036464,-74.0331045,Usaquén
122,11,Bogotá D.C,11001,BOGOTÁ,"1,100,104,968",SOCIEDAD SALESIANA INSPECTORÌA DE BOGOTA,"860,008,010",NO,KR 6 # 27 65 SUR,KR 6 # 27 65 SUR,2093366,Privada,1,4.5562913,-74.1186846,Rafael Uribe Uribe
123,11,Bogotá D.C,11001,BOGOTÁ,"1,100,105,040",FEDERACION ODONTOLOGICA COLOMBIANA,"860,006,792",NO,CALLE 93 # 11 39,CALLE 93 # 11 39,2361414-2184984-3157901758,Privada,1,4.7137644,-74.0958458,Engativá
124,11,Bogotá D.C,11001,BOGOTÁ,"1,100,105,076",UNIDAD DE FERTILIDAD DEL COUNTRY LTDA,"800,075,619",NO,CRA 16 # 82 29 PI 7,CRA 16 # 82 29 PI 7,6164480,Privada,1,4.5902581,-74.0944554,Antonio Nariño
125,11,Bogotá D.C,11001,BOGOTÁ,"1,100,105,098",CONTROLAR SALUD INTEGRAL S.A.S,"830,103,479",NO,KR 45 A # 94- 91,KR 45 A # 94- 91,7420428,Privada,2,4.5712869,-74.1584799,Ciudad Bolivar
126,11,Bogotá D.C,11001,BOGOTÁ,"1,100,105,128",UNIDAD MEDICA IPS MARCO FIDEL SUAREZ LTDA,"830,076,155",NO,Av Cra 70 No. 51 41 - Barrio:NORMANDIA,Av Cra 70 No. 51 41 - Barrio:NORMANDIA,2573439,Privada,4,4.6837843,-74.0915908,Engativá
127,11,Bogotá D.C,11001,BOGOTÁ,"1,100,105,200",VISUAL POINT S.A.S,"830,094,312",,CLL 106 53 39 OF 406 ED COSMOPOLITAN,CLL 106 53 39 OF 406 ED COSMOPOLITAN,7462234 - 7462318,Privada,1,4.685108,-74.0356449,Usaquén
129,11,Bogotá D.C,11001,BOGOTÁ,"1,100,105,214",CENTRO DE RAYOS X Y ECOGRAFIA S.A.S,"800,061,622",NO,KR 16 # 82 74 CS 201 - 202 - 301 - 302,KR 16 # 82 74 CS 201 - 202 - 301 - 302,6101139-3153333320,Privada,1,4.5902581,-74.0944554,Antonio Nariño
131,11,Bogotá D.C,11001,BOGOTÁ,"1,100,105,239",CAYO ALONSO DUARTE SUAREZ Y COMPAÑIA S EN C,"830,011,933",NO,CALLE 93 B # 13 92 CONS 101,CALLE 93 B # 13 92 CONS 101,6227835,Privada,1,4.6750898,-74.0441888,Chapinero
132,11,Bogotá D.C,11001,BOGOTÁ,"1,100,105,262",INMUNOLOGIA Y DIAGNOSTICO ESPECIALIZADO IDE SAS,"830,040,120",NO,CRA 9 # 48 40 CONS 402,CRA 9 # 48 40 CONS 402,5700029 - 3102106024,Privada,1,4.63551975,-74.06463245099232,Chapinero
133,11,Bogotá D.C,11001,BOGOTÁ,"1,100,105,271",UNIDAD DE ESPECIALISTAS OFTALMOLOGICOS S.A.,"830,007,382",NO,CRA 16 82 95 CS 801-802-806-506-507,CRA 16 82 95 CS 801-802-806-506-507,6216615/2572891,Privada,1,4.5902581,-74.0944554,Antonio Nariño
134,11,Bogotá D.C,11001,BOGOTÁ,"1,100,105,322",COMUNIDAD HERMANAS HOSPITALARIAS DEL SAGRADO CORAZON DE JESUS,"860,007,760",NO,CRA 7 # 68 70,CRA 7 # 68 70,5870366,Privada,1,4.5568144,-74.1205072,Rafael Uribe Uribe
135,11,Bogotá D.C,11001,BOGOTÁ,"1,100,105,341",CENTRO COLOMBIANO DE CIRUGIA PLASTICA LTDA,"830,095,073",NO,CL 97 # 23-37 PISO 9 CONSULTORIO 901,CL 97 # 23-37 PISO 9 CONSULTORIO 901,6420600,Privada,1,4.6804109,-74.0454642,Chapinero
136,11,Bogotá D.C,11001,BOGOTÁ,"1,100,105,464",ALIRIO GUTIERREZ MILLAN Y CIA SAS UNIDAD DE ATENCIÓN PRIMARIA DARSALUD,"830,025,766",NO,KR 78 K # 33 A 76 SUR,KR 78 K # 33 A 76 SUR,2657599,Privada,1,4.6181757,-74.16117,Kennedy
137,11,Bogotá D.C,11001,BOGOTÁ,"1,100,105,480",SO SERVICIOS MEDICOS Y OFTALMOLOGICOS S.A.S,"800,233,471",NO,CALLE 100 No. 7-33 TO 1 OF 803,CALLE 100 No. 7-33 TO 1 OF 803,6056828 ext 180-108,Privada,4,4.6898289,-74.0717502,Suba
138,11,Bogotá D.C,11001,BOGOTÁ,"1,100,105,490",SALUD Y DIAGNOSTICO DIAMEDICAL LTDA,"830,077,560",NO,CL 81 # 19 A 12,CL 81 # 19 A 12,7044767   3123615396,Privada,1,4.7180017,-74.1160146,Engativá
139,11,Bogotá D.C,11001,BOGOTÁ,"1,100,105,506",SOCIEDAD INTERDISCIPLINARIA PARA LA SALUD S.A SIGLA SIPLAS SA - CENTRO DE MEDICINA DIAGNOSTICA SIPLAS - CMD SIPLAS,"860,069,870",NO,CALLE 45C bIS 22-38 - Barrio:PALERMO,CALLE 45C bIS 22-38 - Barrio:PALERMO,3017672464,Privada,5,4.636827,-74.074396,Teusaquillo
140,11,Bogotá D.C,11001,BOGOTÁ,"1,100,105,509",NEUROLOGOS CLINICOS ASOCIADOS CIA. LTDA,"800,243,592",NO,Kr 16 No 82-74 cons 520,Kr 16 No 82-74 cons 520,6919240,Privada,1,4.5902581,-74.0944554,Antonio Nariño
141,11,Bogotá D.C,11001,BOGOTÁ,"1,100,105,577",DEXA DIAB SERVICIOS MEDICOS LTDA,"830,013,594",NO,KR 16 A # 79 33,KR 16 A # 79 33,5302838,Privada,1,4.7473303,-74.0378721,Usaquén
142,11,Bogotá D.C,11001,BOGOTÁ,"1,100,105,597",CAJA DE COMPENSACIÓN FAMILIAR CAFAM,"860,013,570",NO,CRA 15 # 51 35,CRA 15 # 51 35,5550700 ext 12017-12015,Privada,1,4.7055644,-74.0426829,Usaquén
143,11,Bogotá D.C,11001,BOGOTÁ,"1,100,105,606",LABINTOX S.A.S,"800,165,047",NO,CALLE 134 BIS No. 18-43 - Barrio:CONTADOR,CALLE 134 BIS No. 18-43 - Barrio:CONTADOR,3099174 - 3099175 - 3099176,Privada,6,4.7197721,-74.057018,Suba
144,11,Bogotá D.C,11001,BOGOTÁ,"1,100,105,618",FUNDACION SANTA FE DE BOGOTA,"860,037,950",NO,CL 119 # 7 75,CL 119 # 7 75,6030303,Privada,1,4.7043123,-74.0703771,Suba
145,11,Bogotá D.C,11001,BOGOTÁ,"1,100,105,620",TERAPIAS SAS,"830,056,902",NO,CL 135A No 10-39  piso 1,CL 135A No 10-39  piso 1,3047026,Privada,1,4.7383193,-74.0968732,Suba
146,11,Bogotá D.C,11001,BOGOTÁ,"1,100,105,659",UMED LTDA,"830,015,894",NO,KR 21 # 26 06 SUR,KR 21 # 26 06 SUR,2785555 - 3665291 - 3112655841,Privada,1,4.5783339,-74.1175776,Rafael Uribe Uribe
147,11,Bogotá D.C,11001,BOGOTÁ,"1,100,105,668",HOSPITAL UNIVERSITARIO CLINICA SAN RAFAEL,"860,015,888",NO,CRA 8 # 17 45 SUR,CRA 8 # 17 45 SUR,3282300 ext 2520,Privada,1,4.5764087,-74.090951,San Cristobal
148,11,Bogotá D.C,11001,BOGOTÁ,"1,100,105,681",FUNDACION HOSPITAL DE LA MISERICORDIA,"899,999,123",NO,Avenida  Carrera 14 No 1-65,Avenida  Carrera 14 No 1-65,3811970,Privada,1,4.6139499,-74.0738337,Los Mártires
149,11,Bogotá D.C,11001,BOGOTÁ,"1,100,105,711",CENTRO MEDICO OFTALMOLOGICO Y LABORATORIO CLINICO ANDRADE NARVAEZ SOCIEDAD POR ACCIONES SIMPLIFICADA SIGLA  COLCAN S.A.S.,"800,066,001",NO,CALLE 49 # 13-60,CALLE 49 # 13-60,744 75 55,Privada,1,4.6374569,-74.0726842,Teusaquillo
150,11,Bogotá D.C,11001,BOGOTÁ,"1,100,105,715",CEMPAI SAS,"830,012,332",NO,CL 134 # 7B 83 CS 814,CL 134 # 7B 83 CS 814,3212092628- 3108176600,Privada,1,4.742783,-74.125321,Suba
151,11,Bogotá D.C,11001,BOGOTÁ,"1,100,105,725",CLINICA DE NUESTRA SEÑORA DE LA PAZ,"860,015,905",NO,Carrera 69 N°12 -75,Carrera 69 N°12 -75,2921277,Privada,1,4.6506302,-74.1159171,Fontibón
152,11,Bogotá D.C,11001,BOGOTÁ,"1,100,105,742",Medicina de Rehabilitación y Electrodiagnóstico SAS,"800,223,967",NO,CALLE 116 # 9 - 72 CONSULTORIO 712,CALLE 116 # 9 - 72 CONSULTORIO 712,4762774-3152741711,Privada,1,4.7021318,-74.0826143,Suba
153,11,Bogotá D.C,11001,BOGOTÁ,"1,100,105,758",MEDICINA PERINATAL LTDA,"800,201,426",NO,CRA 16 # 84 A 09 CONS 314,CRA 16 # 84 A 09 CONS 314,6217519,Privada,1,4.5902581,-74.0944554,Antonio Nariño
155,11,Bogotá D.C,11001,BOGOTÁ,"1,100,105,775",INVERSIONES LAYNE S.A.S.,"830,085,219",NO,AK 19 # 108-35 Local 1,AK 19 # 108-35 Local 1,6160333,Privada,1,4.5621909,-74.1390913,Ciudad Bolivar
156,11,Bogotá D.C,11001,BOGOTÁ,"1,100,105,776",CENTRO MEDICO ENDOCENTRO LTDA,"830,043,273",NO,AV SUBA 60 # 115 - 58 T B OF 403,TV 60 # 115 58 T B OF 403,3160340,Privada,1,4.7279053,-74.0748116,Suba
157,11,Bogotá D.C,11001,BOGOTÁ,"1,100,105,800",VIVIR IPS LTDA,"830,017,370",,CARRERA 10 NUMERO 26-34 SUR,CARRERA 10 NUMERO 26-34 SUR,3001579 EXT 104 - 107,Privada,1,4.5628626,-74.1109341,Rafael Uribe Uribe
158,11,Bogotá D.C,11001,BOGOTÁ,"1,100,105,868",UNIDAD MEDICA SANTAFE SAS,"830,017,969",NO,AV CALLE 127 # 15 A - 55,AV CALLE 127 # 15 A - 55,7429579 - 3173682892- 3173834659 - 3163195807 - 3163345158,Privada,10,4.7089216,-74.0644733,Suba
159,11,Bogotá D.C,11001,BOGOTÁ,"1,100,105,886",ALIADOS SALUD OCUPACIONAL SAS,"830,082,968",NO,CL 80 # 19 56,CL 80 # 19 56,6230213 - 3112273836,Privada,1,4.6654902,-74.055667,Chapinero
160,11,Bogotá D.C,11001,BOGOTÁ,"1,100,105,944",CLINICA DE ESPECIALISTAS LINEA ORAL LTDA,"830,101,745",NO,CALLE 12 SUR # 31 33 PI 1,CALLE 12 SUR # 31 33 PI 1,7204077,Privada,1,4.5769581,-74.0857797,San Cristobal
161,11,Bogotá D.C,11001,BOGOTÁ,"1,100,105,989",CLINICA DE OJOS (CLINOJOS) S.A. / CLINOJOS S.A.,"860,053,761",NO,"AK 45 # 95 54 1ER PISO, 2DO PISO Y 3ER PISO EN LA OFICINA 301","AK 45 # 95 54 1ER PISO, 2DO PISO Y 3ER PISO EN LA OFICINA 301",6237373,Privada,1,4.7364014,-74.0485756,Usaquén
162,11,Bogotá D.C,11001,BOGOTÁ,"1,100,106,016",CENTRO DE TERAPIAS OCUFILEN LTDA,"830,104,166",NO,CALLE 117 # 6 A  83 CONS 502-503-504,CALLE 117 # 6 A  83 CONS 502-503-504,2154844,Privada,1,4.699105,-74.0499901,Usaquén
163,11,Bogotá D.C,11001,BOGOTÁ,"1,100,106,024",AYUDAS DIAGNOSTICAS SURA S.A.S,"800,225,057",NO,AK 14 No. 49-83 LC 2,AK 14 No. 49-83 LC 2,3178528626,Privada,1,4.6139499,-74.0738337,Los Mártires
164,11,Bogotá D.C,11001,BOGOTÁ,"1,100,106,036",UNIDAD MAMOGRAFICA DEL  COUNTRY LTDA,"800,057,325",NO,KR 16 # 84 A 09 CS 423 - 424,KR 16 # 84 A 09 CS 423 - 424,6217290,Privada,1,4.5902581,-74.0944554,Antonio Nariño
165,11,Bogotá D.C,11001,BOGOTÁ,"1,100,106,065",ESE INSTITUTO NACIONAL DE CANCEROLOGIA,"899,999,092",SI,Cl 1 No 9-85,Cl 1 No 9-85,0913905012 Ext. 2000 - 2001,Pública,1,4.6310716,-74.1505983,Kennedy
166,11,Bogotá D.C,11001,BOGOTÁ,"1,100,106,069",LABORATORIO DE TOXICOLOGIA VARGAS MELO LTDA,"830,103,873",NO,CALLE 71 # 10 48,CALLE 71 # 10 48,2110575,Privada,1,4.7062366,-74.1212778,Engativá
167,11,Bogotá D.C,11001,BOGOTÁ,"1,100,106,086",IPS COMFASALUD S A,"830,015,068",NO,CALLE 17 # 10 16 PI 9,CALLE 17 # 10 16 PI 9,3421601 3375269 3123722030,Privada,1,4.6164124,-74.0905979,Puente Aranda
168,11,Bogotá D.C,11001,BOGOTÁ,"1,100,106,146",SOCIEDAD DE CIRUGIA OCULAR S A,"800,231,602",NO,CRA 16 # 97-46 ED TORRE 97 PH Torre II Pisos 2-3-4-5 Cs 701  - Barrio:CHICO NORTE,CRA 16 # 97-46 ED TORRE 97 PH Torre II Pisos 2-3-4-5 Cs 701  - Barrio:CHICO NORTE,6257723,Privada,2,4.6754953,-74.05352,Chapinero
169,11,Bogotá D.C,11001,BOGOTÁ,"1,100,106,213",ENFERMERAS DOMICILIARIAS ASOCIADAS ENFASO SAS,"800,154,867",NO,AC 127 # 20 16 Ofc 215,AC 127 # 20 16 Ofc 215,6232105,Privada,2,4.7040181,-74.0344695,Usaquén
170,11,Bogotá D.C,11001,BOGOTÁ,"1,100,106,258",MEDIPORT SAS,"830,073,010",NO,Cr 45 No. 100 - 34 Piso 6,Cr 45 No. 100 - 34 Piso 6,7463713,Privada,2,4.6256851,-74.1026038,Puente Aranda
171,11,Bogotá D.C,11001,BOGOTÁ,"1,100,106,292",FISIOEXPRESS LTDA,"830,018,481",,KR 7 F # 145 59,KR 7 F # 145 59,6261873,Privada,1,4.5731962,-74.0923047,San Cristobal
172,11,Bogotá D.C,11001,BOGOTÁ,"1,100,106,319",CIENCIA Y ESTETICA CIRUGIA PLASTIKA MD SAS,"830,089,570",NO,AK 45 # 118 86  PI 7,AK 45 # 118 86  PI 7,6473777,Privada,1,4.7364014,-74.0485756,Usaquén
173,11,Bogotá D.C,11001,BOGOTÁ,"1,100,106,342",CENTRO DE GASTROENTEROLOGIA Y ENDOSCOPIA LIMITADA,"830,014,048",,CALLE 117 #6A 60 CONSULTORIO 603A,CALLE 117 #6A 60 CONSULTORIO 603A,3505210870,Privada,1,4.699105,-74.0499901,Usaquén
174,11,Bogotá D.C,11001,BOGOTÁ,"1,100,106,382",BRAQUITERAPIA MARLY LTDA,"830,117,403",,CARRERA 9 No. 49 22 CS206 BUNKER BQT,CARRERA 9 No. 49 22 CS206 BUNKER BQT,2887446,Privada,1,4.636552050000001,-74.0643622627841,Chapinero
177,11,Bogotá D.C,11001,BOGOTÁ,"1,100,106,453",CRUZ ROJA COLOMBIANA SECCIONAL CUNDINAMARCA Y BOGOTA,"860,070,301",NO,CARRERA 23 No. 73-19,CARRERA 23 No. 73-19,7460909,Privada,1,4.6639939,-74.06596470401716,Barrios Unidos
178,11,Bogotá D.C,11001,BOGOTÁ,"1,100,106,454",UROSALUD S.A.S,"830,053,692",NO,CRA 13 NO 49 - 40 CONSULTORIO 205,CRA 13 NO 49 - 40 CONSULTORIO 205,2321605 - 3104814619,Privada,1,4.5592249,-74.1314313,Tunjuelito
179,11,Bogotá D.C,11001,BOGOTÁ,"1,100,106,495",ANALIZAR LABORATORIO CLINICO AUTOMATIZADO S.A.S.,"891,408,851",,CL 103 # 14 A 76,CL 103 # 14 A 76,6580000 Ext. 9100 Celular 3017672464,Privada,1,4.6736097,-74.0204381,Chapinero
180,11,Bogotá D.C,11001,BOGOTÁ,"1,100,106,516",LABORATORIO BIOCLINICO GOMEZ VESGA G V S.A.S. SIGLA LABORATORIO CLINICO GOMEZ VESGA,"860,030,582",,AV CRA 7 No. 119-14 LOCAL 104 A Barrio: Usaquen,AV CRA 7 No. 119-14 LOCAL 104 A Barrio: Usaquen,2756237,Privada,5,4.6907748,-74.0341986,Usaquén
181,11,Bogotá D.C,11001,BOGOTÁ,"1,100,106,537",SALUD OCUPACIONAL DE LOS ANDES LIMITADA,"830,029,102",NO,CR 62 N° 12 - 58 BG 1-2-3-4-5 - Barrio:CC PUENTE ARANDA,CR 62 N° 12 - 58 BG 1-2-3-4-5 - Barrio:CC PUENTE ARANDA,2903763 - 7560686 Ext 100 - 203 / 3203337914,Privada,3,4.6690342,-74.0857895,Barrios Unidos
182,11,Bogotá D.C,11001,BOGOTÁ,"1,100,106,551",FUNDACION INSTITUTO DE REUMATOLOGIA FERNANDO CHALEM,"860,050,632",NO,CL 73 # 20 A 27 PISO 1,CL 73 # 20 A 27 PISO 1,3466077,Privada,1,4.7158837,-74.1275557,Engativá
183,11,Bogotá D.C,11001,BOGOTÁ,"1,100,106,580",SERVICIO DE ATENCION ODONTOLOGICA S.A.S SIGLA SEDATO S.A.S,"830,041,565",NO,AC 127 # 19 A 28 CS 201 ACOMEDICA 1,AC 127 # 19 A 28 CS 201 ACOMEDICA 1,6601318-6141912- 3123783706,Privada,2,4.7040181,-74.0344695,Usaquén
184,11,Bogotá D.C,11001,BOGOTÁ,"1,100,106,688",ORL BOSQUE LTDA,"830,076,034",NO,AC 134 # 7 B 83 OF 719,AC 134 # 7 B 83 OF 719,6271711 - 6331586,Privada,1,4.71144255,-74.03107490323647,Usaquén
186,11,Bogotá D.C,11001,BOGOTÁ,"1,100,106,730",POLICLINICO SANTA FE DE BOGOTA LTDA,"830,115,041",NO,CL. 65J SUR #51,TV 80 A # 65 J 51 SUR,7807175 - 7808920 - 3164707332,Privada,1,4.5976979,-74.1870703,Bosa
187,11,Bogotá D.C,11001,BOGOTÁ,"1,100,106,736",FUNDACION PARA EL NIÑO SORDO ICAL,"860,021,072",NO,KR 7C #122-22,KR 7C #122-22,2135040,Privada,1,4.4993362,-74.1143117,Usme
188,11,Bogotá D.C,11001,BOGOTÁ,"1,100,106,776",OTOFON SOCIEDAD POR ACCIONES SIMPLIFICADA SIGLA OTOFON S.A.S,"800,003,111",NO,KR 7 No 119 14 CS 310-332,KR 7 No 119 14 CS 310-332,2153666,Privada,1,4.69591985,-74.03150950851258,Usaquén
190,11,Bogotá D.C,11001,BOGOTÁ,"1,100,106,780",CENTRO QUIRURGICO DE LA SABANA S.A - CIRUSABANA S.A,"800,162,636",NO,"AK 7 # 119 14 CS 107, 213 AL 218, 329, 330, 425","AK 7 # 119 14 CS 107, 213 AL 218, 329, 330, 425",2147420-3143954496,Privada,1,4.6907748,-74.0341986,Usaquén
191,11,Bogotá D.C,11001,BOGOTÁ,"1,100,106,825",INSTITUTO COLOMBIANO DE NEUROCIENCIAS LIMITADA,"800,158,253",NO,KR 13 # 119 - 87 cons 106,KR 13 # 119 - 87 cons 106,3156468040,Privada,1,4.5592249,-74.1314313,Tunjuelito
192,11,Bogotá D.C,11001,BOGOTÁ,"1,100,106,834",RTS S.A.S,"805,011,262",NO,KR 14A No.163A-98,KR 14A No.163A-98,6696996,Privada,1,4.6550725,-74.0636104,Barrios Unidos
193,11,Bogotá D.C,11001,BOGOTÁ,"1,100,106,901",DIAGNOSTICO PRENATAL LTDA,"800,243,562",NO,AC 127 # 20  78 CONS 420,AC 127 # 20  78 CONS 420,6141750,Privada,1,4.7040181,-74.0344695,Usaquén
194,11,Bogotá D.C,11001,BOGOTÁ,"1,100,106,913",CENTRO DE REHABILITACION PARA ADULTOS CIEGOS CRAC,"860,011,298",NO,CL 8 SUR #31 NO. 31 A,AC 8 SUR # 31 A 31,7209040,Privada,1,4.575717,-74.0791051,San Cristobal
195,11,Bogotá D.C,11001,BOGOTÁ,"1,100,106,948",UNILASER MEDICA S.A.,"830,114,035",NO,KR 13 # 93 67 OF 104 - 105 - 106 - 107,KR 13 # 93 67 OF 104 - 105 - 106 - 107,5302682,Privada,1,4.5074105,-74.1134604,Usme
196,11,Bogotá D.C,11001,BOGOTÁ,"1,100,106,971",FUNDACION ARTHUR STANLEY GILLOW,"860,016,372",NO,AV. CALLE 100 # 11 B 04,AV. CALLE 100 # 11 B 04,6200937,Privada,1,4.6888485,-74.0727945,Suba
197,11,Bogotá D.C,11001,BOGOTÁ,"1,100,107,032",INSTITUTO Y LABORATORIO CLINICO LTDA,"860,055,274",NO,CL 38 # 8 32 LC 101,CL 38 # 8 32 LC 101,2327272-3203647630,Privada,1,9.2909207,-75.3880853,
198,11,Bogotá D.C,11001,BOGOTÁ,"1,100,107,034",SERVITERAPIAS SAS - SERVICIOS TERAPEUTICOS DOMICILIARIOS,"830,099,405",NO,Cra 7c Bis No 139-18 ofc 210,Cra 7c Bis No 139-18 ofc 210,7514675 - 3123511353,Privada,1,4.7294102,-74.0268398,Usaquén
200,11,Bogotá D.C,11001,BOGOTÁ,"1,100,107,039",CLINICA ODONTOLOGICA PROTECCION ORAL S.A.S. SIGLA COPO S.A.S.,"800,189,531",NO,AV CRA 19 No 125 26 PISO 1,AV CRA 19 No 125 26 PISO 1,7552985  7559251  7557216  3175161250,Privada,1,4.5621909,-74.1390913,Ciudad Bolivar
201,11,Bogotá D.C,11001,BOGOTÁ,"1,100,107,091",LABORATORIO DE INVESTIGACIÓN HORMONAL LIH S.A.,"800,075,543",NO,Carrera 21 # 166 - 77/81 piso 1 y 2,Carrera 21 # 166 - 77/81 piso 1 y 2,6205501 ext. 101,Privada,1,4.5440148,-74.1532663,Ciudad Bolivar
202,11,Bogotá D.C,11001,BOGOTÁ,"1,100,107,119",SISTEMAS DE TERAPIA RESPIRATORIA SAS,"860,041,333",NO,Carrera 23 No. 124-87 ofc 703-704,Carrera 23 No. 124-87 ofc 703-704,7945808,Privada,1,4.6910824,-74.0553127,Usaquén
203,11,Bogotá D.C,11001,BOGOTÁ,"1,100,107,138",ENFETER SA,"800,028,332",NO,AC 116 No 9-72 Consultorio 601 y 501,AC 116 No 9-72 Consultorio 601 y 501,7420030 4894228,Privada,1,4.6993273,-74.0546532,Usaquén
204,11,Bogotá D.C,11001,BOGOTÁ,"1,100,107,161",OPTICA ALEMANA SCHMIDT HIJOS LTDA,"860,000,812",NO,CARRERA 11 N° 82-71 LOCAL 3-52 - Barrio:EL RETIRO,CARRERA 11 N° 82-71 LOCAL 3-52 - Barrio:EL RETIRO,3002112 - 3219648703,Privada,5,4.5648908,-74.1092268,Rafael Uribe Uribe
205,11,Bogotá D.C,11001,BOGOTÁ,"1,100,107,164",BECERRA TORRES LIMITADA,"800,156,646",NO,CALLE 90 # 11 44 CONS 210,CALLE 90 # 11 44 CONS 210,6102059,Privada,1,4.6834225,-74.0708586,Barrios Unidos
207,11,Bogotá D.C,11001,BOGOTÁ,"1,100,107,246",CENTRO OTORRINOLARINGOLOGICO ESPECIALIZADO,"830,003,739",NO,CRA 16 A # 84 25,CRA 16 A # 84 25,5302192,Privada,1,4.7473303,-74.0378721,Usaquén
208,11,Bogotá D.C,11001,BOGOTÁ,"1,100,107,308",ORTODONCISTAS ASOCIADOS S.A.S,"830,026,163",NO,KR 11 # 66 53 LOCAL 1,KR 11 # 66 53 LOCAL 1,5405838,Privada,1,4.5640668,-74.1102104,Rafael Uribe Uribe
209,11,Bogotá D.C,11001,BOGOTÁ,"1,100,107,313",CLINICA RANGEL PEREIRA LTDA,"830,028,116",NO,CALLE 96 No 14-53/47 OFICINA 201,CALLE 96 No 14-53/47 OFICINA 201,6114050 - 3002002714,Privada,1,4.685863,-74.069638,Barrios Unidos
210,11,Bogotá D.C,11001,BOGOTÁ,"1,100,107,318",CORVESALUD S.A.S,"830,007,229",NO,AK 45 # 108 27 PI 15 TO 3,AK 45 # 108 27 PI 15 TO 3,3015237232 - 3015234998,Privada,2,4.7364014,-74.0485756,Usaquén
211,11,Bogotá D.C,11001,BOGOTÁ,"1,100,107,321",CLINICA DE TRAUMATOLOGIA Y ORTOPEDIA LTDA,"860,079,997",NO,CALLE 71 # 10 92,CALLE 71 # 10 92,2494131-3105699654,Privada,1,4.656459,-74.05905722180846,Chapinero
212,11,Bogotá D.C,11001,BOGOTÁ,"1,100,107,335",CAJA DE COMPENSACION FAMILIAR COMPENSAR,"860,066,942",NO,AV. CL 26 No. 66 A - 48,AV. CL 26 No. 66 A - 48,57 1 4285088,Privada,3,4.696677,-74.1396102,Fontibón
214,11,Bogotá D.C,11001,BOGOTÁ,"1,100,107,357",OPTICENTRO INTERNACIONAL S.A.S,"860,043,998",NO,CRA 11 # 69 81,CRA 11 # 69 81,3497980,Privada,1,4.6548599,-74.0605659,Chapinero
215,11,Bogotá D.C,11001,BOGOTÁ,"1,100,107,361",SALUD REINUN LTDA CLINICA COLOMBIANA DE REUMATOLOGIA REHABILITACION E INMUNOLOGIA,"800,041,599",NO,KR 19 A No 82-51 1ER PISO  CONSULTORIO 100  2DO PISO 201 202  OFICINA 203-204-208,KR 19 A No 82-51 1ER PISO  CONSULTORIO 100  2DO PISO 201 202  OFICINA 203-204-208,610 09 06 - 257 48 48,Privada,1,4.5589394,-74.1483859,Ciudad Bolivar
216,11,Bogotá D.C,11001,BOGOTÁ,"1,100,107,392",MARYEP S.A,"830,018,539",NO,CRA 47 # 95-14,CRA 47 # 95-14,6164300,Privada,1,4.684046800000001,-74.05963025,Barrios Unidos
217,11,Bogotá D.C,11001,BOGOTÁ,"1,100,107,411",LABORATORIO CLINICO DE MARLY DANIEL GAMBOA & CIA LTDA,"800,009,646",NO,CALLE 50 # 9 67 INT 101,CALLE 50 # 9 67 INT 101,2454906,Privada,1,4.6374749,-74.0669591,Teusaquillo
218,11,Bogotá D.C,11001,BOGOTÁ,"1,100,107,440",INSTITUTO COLOMBIANO DEL SISTEMA NERVIOSO - CLINICA MONTSERRAT -,"860,007,400",NO,CALLE 134 No. 17-71,CALLE 134 No. 17-71,2596001,Privada,1,4.742783,-74.125321,Suba
220,11,Bogotá D.C,11001,BOGOTÁ,"1,100,107,508",LABORATORIO BIOIMAGEN SOCIEDAD LIMITADA,"830,016,595",NO,CLL 77 NO 27A-20,CLL 77 NO 27A-20,3002969731  -  6601258 Ext 102,Privada,1,4.7097143,-74.1153587,Engativá
221,11,Bogotá D.C,11001,BOGOTÁ,"1,100,107,519",FUNDACION PARA PREVENCION Y REHABILITACION DE LA DROGADICCION Y EL ALCOHOLISMO LIBERATE,"830,098,811",NO,TV 77 No. 166-40,TV 77 No. 166-40,6806910,Privada,1,4.7003029,-74.0938898,Engativá
222,11,Bogotá D.C,11001,BOGOTÁ,"1,100,107,521",CONGREGACION DE DOMINICAS DE SANTA CATALINA DE SENA,"860,010,783",NO,CL 45F # 16A 11,CL 45F # 16A 11,3274444 ext 530-515,Privada,1,4.599137,-74.1973718,
223,11,Bogotá D.C,11001,BOGOTÁ,"1,100,107,522",CLINICA VASCULAR NAVARRA S.A.  / CLINICA NAVARRA,"800,247,537",NO,AK 45 # 106 30,AK 45 # 106 30,6059999 ext 101,Privada,1,4.6938583,-74.0555222,Usaquén
224,11,Bogotá D.C,11001,BOGOTÁ,"1,100,107,524",INSTITUTO COLOMBIANO DE ENFERMEDADES VASCULARES ICEV LTDA,"800,120,151",NO,AK 45 # 106 30 CONS 203,AK 45 # 106 30 CONS 203,5239373,Privada,1,4.6938583,-74.0555222,Usaquén
225,11,Bogotá D.C,11001,BOGOTÁ,"1,100,107,547",QUALITAS SALUD LTDA,"800,132,210",NO,CARRERA 46 No.93-07,CARRERA 46 No.93-07,7442412,Privada,1,4.7095812,-74.0554261,Suba
226,11,Bogotá D.C,11001,BOGOTÁ,"1,100,107,564",INSTITUTO DE CIRUGIA OCULAR PALERMO LTDA,"800,048,248",NO,CALLE 46 # 13 13,CALLE 46 # 13 13,2456623-2455428,Privada,1,4.63301405,-74.06660201293104,Chapinero
227,11,Bogotá D.C,11001,BOGOTÁ,"1,100,107,567",CENTRO OFTALMOLOGICO OLSABE S.A.S,"800,169,433",NO,CALLE 120 # 7 38,CALLE 120 # 7 38,6191669,Privada,1,4.7013088,-74.0527857,Usaquén
228,11,Bogotá D.C,11001,BOGOTÁ,"1,100,107,570",CENTRO OFTALMOLOGICO COLOMBIANO LTAD,"800,061,267",NO,KR. 19A Nº 85-11 OFICINA 401  402  406  407  408  409 PISO 5 Y 6,KR. 19A Nº 85-11 OFICINA 401  402  406  407  408  409 PISO 5 Y 6,2360000,Privada,1,4.671761050000001,-74.05805149650121,Chapinero
229,11,Bogotá D.C,11001,BOGOTÁ,"1,100,107,573",FEDERACIÓN ODONTOLÓGICA COLOMBIANA SECCIONAL BOGOTÁ Y CUNDINAMARCA,"860,021,330",NO,KR 19 # 39 21 /25,KR 19 # 39 21 /25,3382978-2452220-2453480,Privada,1,4.5762294,-74.1195395,Rafael Uribe Uribe
230,11,Bogotá D.C,11001,BOGOTÁ,"1,100,107,594",HOME SALUD SAS,"830,063,394",NO,CALLE 89 21 - 30,CALLE 89 21 - 30,6350935,Privada,1,4.6761749,-74.0577362,Chapinero
231,11,Bogotá D.C,11001,BOGOTÁ,"1,100,107,646",CENTRO AUDIOLOGICO Y QUIRURGICO DEL COUNTRY SAS,"830,113,069",NO,KR 16 A # 82 75 CS 402,KR 16 A # 82 75 CS 402,6160502,Privada,1,4.7473303,-74.0378721,Usaquén
232,11,Bogotá D.C,11001,BOGOTÁ,"1,100,107,648",CLINICA IZKA SAS,"800,172,517",NO,CL 83 No. 19 36 PI 4o.,CL 83 No. 19 36 PI 4o.,6160670 - 3133482590,Privada,1,4.6700461,-74.0596304,Chapinero
233,11,Bogotá D.C,11001,BOGOTÁ,"1,100,107,673",DERMOESCULTURA S.A.S  SIGLA HARKER Y LLOREDA,"830,033,882",NO,Calle 127 A Nº 7-53 CONSULTORIO DEL 2005 AL 2009,Calle 127 A Nº 7-53 CONSULTORIO DEL 2005 AL 2009,6193008-3166234562,Privada,1,4.703464,-74.02931207631701,Usaquén
234,11,Bogotá D.C,11001,BOGOTÁ,"1,100,107,683",CLINICA LA CAROLINA S.A,"800,099,652",NO,KR 14 # 127 11 PI 1 Y 2,KR 14 # 127 11 PI 1 Y 2,6581616,Privada,1,4.6754389,-74.0512977,Chapinero
235,11,Bogotá D.C,11001,BOGOTÁ,"1,100,107,716",ORGANIZACIONES DE IMAGENOLOGIA COLOMBIANA OIC SA,"830,009,112",,CRA 19A No. 82-85 CONSULTORIO 301,CRA 19A No. 82-85 CONSULTORIO 301,7954218 - 3115929614,Privada,1,4.5589394,-74.1483859,Ciudad Bolivar
236,11,Bogotá D.C,11001,BOGOTÁ,"1,100,107,737","Congregación de Hermanas Franciscanas Misioneras de María Auxiliadora, Región Misionera Santa María Bernarda.","860,028,947",NO,CALLE 18 No 106-48,CALLE 18 No 106-48,4155028,Privada,1,4.6021886,-74.0684532,Santa Fe
238,11,Bogotá D.C,11001,BOGOTÁ,"1,100,107,772",REVISAVIAE LTDA,"800,218,902",NO,"KR 11 # 61 19 PISO 2 OF 201, 203 Y PISO 4 OF 401","KR 11 # 61 19 PISO 2 OF 201, 203 Y PISO 4 OF 401",2112151-3173803115,Privada,1,4.5068864,-74.1126625,Usme
239,11,Bogotá D.C,11001,BOGOTÁ,"1,100,107,773",CLINICA ODONTOLOGICA PARA EL NIÑO LIMITADA C.O.N LTDA,"860,511,234",NO,KR 12 A # 78 - 45 PISO 1,KR 12 A # 78 - 45 PISO 1,5307307-2185124-3125100030,Privada,1,4.7165356,-74.0393518,Usaquén
240,11,Bogotá D.C,11001,BOGOTÁ,"1,100,107,782",Servicios de Salud IPS Suramericana S.A.S,"811,007,832",NO,Cra 7 #54 - 27,Cra 7 #54 - 27,2369936,Privada,4,4.5568144,-74.1205072,Rafael Uribe Uribe
242,11,Bogotá D.C,11001,BOGOTÁ,"1,100,107,807",SUPERAR LTDA,"860,516,579",NO,CARRERA 21 N° 82-51,CARRERA 21 N° 82-51,4454393 - 3103340911,Privada,1,4.5440148,-74.1532663,Ciudad Bolivar
243,11,Bogotá D.C,11001,BOGOTÁ,"1,100,107,843",PROCARDIO SERVICIOS MEDICOS INTEGRALES S.A.S.,"800,210,375",NO,CALLE 35 # 6 - 64  - Barrio:LA MERCED,CALLE 35 # 6 - 64  - Barrio:LA MERCED,2853674,Privada,6,4.6228426,-74.0672952,Santa Fe
244,11,Bogotá D.C,11001,BOGOTÁ,"1,100,107,851",FUNDACION DISPENSARIO SANTA FRANCISCA ROMANA,"800,067,269",NO,calle 151 No. 16 -40,calle 151 No. 16 -40,2743292    cel 3153215492,Privada,1,4.7551157,-74.1043108,Suba
245,11,Bogotá D.C,11001,BOGOTÁ,"1,100,107,857",FUNDACION COLOMBIANA DE ENFERMEDADES VASCULARES PERIFERICAS,"800,105,234",NO,Calle 106 A # 17A - 38,Calle 106 A # 17A - 38,805 23 96 - 805 24 12 - 805 24 13 -  805 24 14,Privada,1,4.6947731,-74.0574196,Suba
246,11,Bogotá D.C,11001,BOGOTÁ,"1,100,107,876",UNIFISIO S.A.S.,"860,078,062",NO,CRA 23 # 45C-31 CONS 609 / 610,CRA 23 # 45C-31 CONS 609 / 610,2875525,Privada,1,4.6361939,-74.0742317,Teusaquillo
247,11,Bogotá D.C,11001,BOGOTÁ,"1,100,107,889",SERVICIOS ODONTOLOGICOS GARDEAZABAL LTDA,"830,067,260",NO,CRA 14 # 98 95 CONS 402,CRA 14 # 98 95 CONS 402,6107748,Privada,1,4.6754389,-74.0512977,Chapinero
248,11,Bogotá D.C,11001,BOGOTÁ,"1,100,107,898",COOPERATIVA MULTIACTIVA PARA LOS PROFESIONALES DEL SECTOR SALUD CMPS,"860,023,987",NO,CARRERA 8 # 45 73,CARRERA 8 # 45 73,3405090,Privada,1,4.63231575,-74.06493847040916,Chapinero
249,11,Bogotá D.C,11001,BOGOTÁ,"1,100,107,919",UNIDAD MEDICA INTEGRAL MARIA AUXILIADORA LIMITADA,"800,237,286",NO,CL 57 A SUR # 79 A 16,CL 57 A SUR # 79 A 16,7774794,Privada,1,4.6342677,-74.1924353,Bosa
250,11,Bogotá D.C,11001,BOGOTÁ,"1,100,107,927",ASOCIACION COLOMBIANA PRO NIÑO CON PARALISIS CEREBRAL -PROPACE,"860,015,852",NO,Cra. 54 Nº 65 - 85 CONS 8 SEGUNDO PISO,Cra. 54 Nº 65 - 85 CONS 8 SEGUNDO PISO,2504035,Privada,1,4.6333622,-74.1058623,Puente Aranda
252,11,Bogotá D.C,11001,BOGOTÁ,"1,100,107,939",CLINICA DE LA MUJER S.A.S.,"800,117,564",NO,KR 19 C  # 91 17,KR 19 C  # 91 17,6161799- 3506005706,Privada,1,4.5799569,-74.1093845,Rafael Uribe Uribe
253,11,Bogotá D.C,11001,BOGOTÁ,"1,100,107,950",INSTITUTO DE ORTOPEDIA Y CIRUGIA PLASTICA SAS,"860,514,752",NO,AK 19 # 114 87 piso 1 y 2   local 4,AK 19 # 114 87 piso 1 y 2   local 4,6190311,Privada,1,4.5621909,-74.1390913,Ciudad Bolivar
254,11,Bogotá D.C,11001,BOGOTÁ,"1,100,107,968",FUNDACION FE,"860,029,566",NO,CRA 59 b No. 129 - 45,CRA 59 b No. 129 - 45,6240507,Privada,1,4.7241465,-74.0702789,Suba
255,11,Bogotá D.C,11001,BOGOTÁ,"1,100,107,975",J Y A GOMEZ GUTIERREZ Y CIA LTDA,"800,241,327",NO,AK 7 # 119 14 CONS 328,AK 7 # 119 14 CONS 328,2152029,Privada,1,4.6907748,-74.0341986,Usaquén
256,11,Bogotá D.C,11001,BOGOTÁ,"1,100,107,987",FUNDACION CLINICA MEGASALUD,"830,085,763",NO,KR 70 # 51 41,KR 70 # 51 41,3192397214,Privada,1,4.6016148,-74.1610122,Bosa
257,11,Bogotá D.C,11001,BOGOTÁ,"1,100,107,994",USIS PERCODEN SAS,"830,111,631",,KR 8 # 49 25 CS 801-802,KR 8 # 49 25 CS 801-802,5705021-3158410056,Privada,1,4.5763511,-74.0909354,San Cristobal
258,11,Bogotá D.C,11001,BOGOTÁ,"1,100,108,024",CLINICA PARTENON LTDA,"800,085,486",NO,CALLE 74 # 76 65,CALLE 74 # 76 65,4306767,Privada,1,4.7114378,-74.1233836,Engativá
259,11,Bogotá D.C,11001,BOGOTÁ,"1,100,108,035",MEDLUCARA LTDA,"800,131,264",NO,AK 20 # 80 - 77,AK 20 # 80 - 77,6114020,Privada,1,4.6682047,-74.060822,Barrios Unidos
260,11,Bogotá D.C,11001,BOGOTÁ,"1,100,108,064",ADN ANALISIS LTDA,"830,079,636",NO,CRA 16 # 82 95 CONS 805,CRA 16 # 82 95 CONS 805,2364102,Privada,1,4.5902581,-74.0944554,Antonio Nariño
261,11,Bogotá D.C,11001,BOGOTÁ,"1,100,108,120",GARCIA PEREZ MEDICA Y COMPAÑIA SAS,"800,231,038",NO,CL 45 C # 22 02 PI 2,CL 45 C # 22 02 PI 2,"338,121,533,812,162,000,000",Privada,1,4.6309288,-74.0575129,Chapinero
263,11,Bogotá D.C,11001,BOGOTÁ,"1,100,108,145",GARCIA Y ROJAS CIA S EN C,"860,402,540",NO,CALLE 125 # 21A - 50 CONS 203 Y 202,CALLE 125 # 21A - 50 CONS 203 Y 202,6202291,Privada,1,4.7066399,-74.0619617,Suba
264,11,Bogotá D.C,11001,BOGOTÁ,"1,100,108,146",FUNDACION UNIVERSITARIA KONRAD LORENZ,"860,504,759",NO,KR 9 N° 61 - 38,KR 9 N° 61 - 38,3472311 Ext 181,Privada,1,4.6696885,-74.0474304,Chapinero
265,11,Bogotá D.C,11001,BOGOTÁ,"1,100,108,171",CAJA COLOMBIANA DE SUBSIDIO FAMILIAR COLSUBSIDIO,"860,007,336",NO,CL 26 # 25-50 Piso 6 Oficina Gerencia IPS,CL 26 # 25-50 Piso 6 Oficina Gerencia IPS,7420100 Ext 1546,Privada,2,7.8830882,-72.4808031,
266,11,Bogotá D.C,11001,BOGOTÁ,"1,100,108,184",JUAN BAUTISTA SALUD OCUPACIONAL SAS,"830,002,115",NO,AK 30   No   46 86  / 90,AK 30   No   46 86  / 90,744 40 03,Privada,1,4.6656072,-74.0748929,Barrios Unidos
267,11,Bogotá D.C,11001,BOGOTÁ,"1,100,108,190",SED SAS,"800,215,743",NO,CARRERA 99 No 18 - 40 LOCAL 2,CARRERA 99 No 18 - 40 LOCAL 2,2678610,Privada,1,4.6397457,-74.1923648,Bosa
268,11,Bogotá D.C,11001,BOGOTÁ,"1,100,108,207",FUNDACION IDEAS DIA A DIA,"830,118,605",NO,KR 22 # 83 50,KR 22 # 83 50,6165453,Privada,1,4.7648143,-74.0430466,Usaquén
269,11,Bogotá D.C,11001,BOGOTÁ,"1,100,108,222",EUSALUD S.A,"800,227,072",NO,DG 54 # 16 A 16,DG 54 # 16 A 16,4320872,Privada,1,4.6445332,-74.0726878,Teusaquillo
270,11,Bogotá D.C,11001,BOGOTÁ,"1,100,108,224",ORTODONCIA RAFAEL MARTINEZ S.A.S / ORTODONCIA RM S.A.S,"830,030,067",NO,Calle 114 No 6A-92 LOCAL 413 D-410 CENTRO COMERCIAL HACIENDA SANTA BARBARA PH,Calle 114 No 6A-92 LOCAL 413 D-410 CENTRO COMERCIAL HACIENDA SANTA BARBARA PH,6197909-2154850-3208651852,Privada,1,4.697546,-74.0670656,Suba
271,11,Bogotá D.C,11001,BOGOTÁ,"1,100,108,229",CENTRO ECOGRAFICO C . G .R .,"830,114,494",NO,CRA 15 # 33 A 21 local 102,CRA 15 # 33 A 21 local 102,2456047,Privada,1,4.7055644,-74.0426829,Usaquén
272,11,Bogotá D.C,11001,BOGOTÁ,"1,100,108,258",INSTITUTO ROOSEVELT,"860,013,874",NO,CRA 4 ESTE # 17 50 AV CIRCUNVALAR,CRA 4 ESTE # 17 50 AV CIRCUNVALAR,3534000 Ext. 382 - 3157833180,Privada,1,4.5782841,-74.0779449,San Cristobal
273,11,Bogotá D.C,11001,BOGOTÁ,"1,100,108,265",FUNDACION CENTRO DE REABILITACION DEL NIÑO ESPECIAL CERES,"808,000,024",NO,CL 44 # 67 A 40/28/54,CL 44 # 67 A 40/28/54,2216880,Privada,1,4.6095086,-74.1292343,Kennedy
274,11,Bogotá D.C,11001,BOGOTÁ,"1,100,108,270",OPTICA IRIS SAS BIC,"800,002,229",NO,AK 10 NO 18-36 OFC 906,AK 10 NO 18-36 OFC 906,2832479 - 2831293 - 2439285,Privada,5,4.5721928,-74.0980787,Rafael Uribe Uribe
275,11,Bogotá D.C,11001,BOGOTÁ,"1,100,108,326",OSTRAUMA LTDA,"800,169,802",NO,AC 127 # 21 60 CONS D-101,AC 127 # 21 60 CONS D-101,6261414 - 7429295 - 3115065297,Privada,1,4.7036464,-74.0331045,Usaquén
276,11,Bogotá D.C,11001,BOGOTÁ,"1,100,108,345",COMPAÑIA CLINICA DE ASISTENCIA ODONTOLOGICA SALUD ORAL24 HORAS EU,"830,061,249",NO,CRA 20 # 78 72 LOCAL 47,CRA 20 # 78 72 LOCAL 47,2560649,Privada,1,4.5611836,-74.1500928,Ciudad Bolivar
277,11,Bogotá D.C,11001,BOGOTÁ,"1,100,108,349",MEDICINA DIAGNOSTICA S.A.,"830,042,511",NO,CRA 59 No 26-21 DEPARTAMENTO DE ESCANOGRAFIA Y RESONANCIA -  SOTANO,CRA 59 No 26-21 DEPARTAMENTO DE ESCANOGRAFIA Y RESONANCIA -  SOTANO,7026106,Privada,1,4.6425329,-74.1033028,Teusaquillo
278,11,Bogotá D.C,11001,BOGOTÁ,"1,100,108,371",FUNDACION LEONISTICA DE SALUD OCULAR,"830,013,373",NO,CALLE 63 # 18 20,CALLE 63 # 18 20,2100406,Privada,1,4.6434932,-74.0540756,Chapinero
280,11,Bogotá D.C,11001,BOGOTÁ,"1,100,108,423",Fundacion Los Pisingos,"860,031,289",,Carrera 7 No 158 - 41,Carrera 7 No 158 - 41,6708686,Privada,1,4.5040492,-74.1103841,Usme
281,11,Bogotá D.C,11001,BOGOTÁ,"1,100,108,437",SOCIEDAD MEDICA DE ORTOPEDIA Y ACCIDENTES LABORALES S A,"800,201,496",NO,Calle 6 A # 70 - 06,Calle 6 A # 70 - 06,7423099,Privada,1,4.6439058,-74.1563327,Kennedy
283,11,Bogotá D.C,11001,BOGOTÁ,"1,100,108,453",CLINICA COLOMBIANA DE OBESIDAD Y METABOLISMO SAS,"830,029,172",NO,"CARRERA  23 # 124-87 TORRE 1 CONSULTORIO 803,804, 805,806 EDIFICIO TORRE ZENTAI","CARRERA  23 # 124-87 TORRE 1 CONSULTORIO 803,804, 805,806 EDIFICIO TORRE ZENTAI",9278731-3158739927-3183059495,Privada,1,4.6910824,-74.0553127,Usaquén
284,11,Bogotá D.C,11001,BOGOTÁ,"1,100,108,456",HORUS GRUPO OFTALMOLOGICO S.A,"800,127,648",NO,KR. 19 B # 84 65 PISO 1,KR. 19 B # 84 65 PISO 1,6358100,Privada,1,4.5595465,-74.1435493,Ciudad Bolivar
285,11,Bogotá D.C,11001,BOGOTÁ,"1,100,108,499",SISTEMAS INTEGRALES EN SALUD OCUPACIONAL LTDA,"830,072,208",NO,KR 11 # 66 53 PI 4  CS 403,KR 11 # 66 53 PI 4  CS 403,3045395508,Privada,1,4.5640668,-74.1102104,Rafael Uribe Uribe
286,11,Bogotá D.C,11001,BOGOTÁ,"1,100,108,556",FUNDACION NIÑEZ Y DESARROLLO FUNDACION FND COLOMBIA,"860,034,503",NO,AK 60 # 63 63,AK 60 # 63 63,3108260,Privada,1,4.664536,-74.0867908,Barrios Unidos
287,11,Bogotá D.C,11001,BOGOTÁ,"1,100,108,572",RED DE DIAGNOSTICO MEDICO S.A. -REDIMED S.A,"800,002,633",NO,AV CARACAS 32 17,AV CARACAS 32 17,2456810,Privada,3,4.5833176,-74.09862,Antonio Nariño
288,11,Bogotá D.C,11001,BOGOTÁ,"1,100,108,575",IPS CLINICA JOSE A RIVAS S.A.,"800,149,169",NO,AK 19 # 100-28 - Barrio:CHICO,AK 19 N 100-28 - Barrio:CHICO,5803939-3174051838,Privada,2,4.5621909,-74.1390913,Ciudad Bolivar
289,11,Bogotá D.C,11001,BOGOTÁ,"1,100,108,613",MEDIEXPRESS S.A.S,"800,223,902",NO,KR 49 # 91 98,KR 49 # 91 98,3102418619 - 7180994,Privada,1,4.7014088,-74.0584385,Suba
291,11,Bogotá D.C,11001,BOGOTÁ,"1,100,108,626",CENTRO DE CIRUGIA MINIMA INVASIVA S.A.S  CECIMIN S.A.S,"830,078,325",NO,AK 45  104 76,AK 45  104 76,3108804150,Privada,1,4.7364014,-74.0485756,Usaquén
292,11,Bogotá D.C,11001,BOGOTÁ,"1,100,108,627",FUNDACION AMAR,"830,074,717",NO,CRA 73  # 73 90,CRA 73  # 73 90,4360864,Privada,1,4.639183,-74.138618,Kennedy
294,11,Bogotá D.C,11001,BOGOTÁ,"1,100,108,648",Clínica Santo Tomás SA,"860,001,475",NO,TV 3 C # 51 A 46,T V 3 C # 51 A 46,2451911,Privada,1,4.6385245,-74.0607185,Chapinero
295,11,Bogotá D.C,11001,BOGOTÁ,"1,100,108,649",UNIDAD MEDICA FAMILIAR DEL SUR IPS S.A.,"830,088,527",NO,cra 4 ESTE # 42 25 SUR consultorio 1,cra 4 ESTE # 42 25 SUR consultorio 1,3678236,Privada,1,4.5431477,-74.0954641,San Cristobal
296,11,Bogotá D.C,11001,BOGOTÁ,"1,100,108,679",SOCIEDAD DE CIRUGIA DE BOGOTA HOSPITAL DE SAN JOSE,"899,999,017",NO,CALLE 10 # 18 75,CALLE 10 # 18 75,3538000 ext 109 o 179,Privada,1,4.6463123,-74.1442958,Kennedy
297,11,Bogotá D.C,11001,BOGOTÁ,"1,100,108,684",ATARDECER DE LOS AÑOS LTDA,"800,118,223",NO,KR 80 # 170 85,KR 80 # 170 85,6711182,Privada,1,4.6461865,-74.1416748,Kennedy
299,11,Bogotá D.C,11001,BOGOTÁ,"1,100,108,706",CENTRO INTERNACIONAL DE MEDICINAS ALTERNATIVAS VAN UDEN IPS,"830,081,149",,AV SUBA # 100 33,AV SUBA # 100 33,5333800,Privada,1,4.6741323,-74.0674637,Barrios Unidos
300,11,Bogotá D.C,11001,BOGOTÁ,"1,100,108,720",CLINICA AVELLANEDA HERNANDEZ S.A.S.,"800,006,602",,CL 106 # 17 45,CL 106 # 17 45,2158388,Privada,1,4.685108,-74.0356449,Usaquén
301,11,Bogotá D.C,11001,BOGOTÁ,"1,100,108,748",PREVEDONTO PREVENCION Y SALUD ORAL INTEGRAL LIMITADA,"830,021,340",NO,CL 106 # 57 23 OF 609,CL 106 # 57 23 OF 609,6131241-3105531257,Privada,1,4.6938464,-74.06569644999999,Suba
302,11,Bogotá D.C,11001,BOGOTÁ,"1,100,108,754",CENTRO DE INVESTIGACIONES DEL SISTEMA NERVIOSO S.A.S. SIGLA GRUPO CISNE S.A.S.,"830,100,595",NO,Calle 173 A N° 65-85,Calle 173 A N° 65-85,3907122 - 3907123,Privada,1,4.7599263,-74.0609595,Suba
303,11,Bogotá D.C,11001,BOGOTÁ,"1,100,108,773",CENTRO COLOMBIANO DE FERTILIDAD Y ESTERILIDAD CECOLFES SAS SIGLA CECOLFES,"800,027,704",NO,Calle 102 # 14 A. 15,Calle 102 N0 14 A. 15,7420505,Privada,1,4.6881404,-74.0541994,Usaquén
304,11,Bogotá D.C,11001,BOGOTÁ,"1,100,108,798",LABORATORIO SERVICONTROL SAS,"830,114,623",NO,CALLE 33 A # 14 30 CONS 208,CALLE 33 A # 14 30 CONS 208,5667712,Privada,1,4.6195444,-74.0657526,Santa Fe
306,11,Bogotá D.C,11001,BOGOTÁ,"1,100,108,883",FUNDACION CENTRO TERAPEUTICO INFANTIL CETI,"860,354,443",NO,CALLE 67 # 28 a 35 PISO 1,CALLE 67 # 28 a 35 PISO 1,3917580,Privada,1,4.6901282,-74.1087619,Engativá
307,11,Bogotá D.C,11001,BOGOTÁ,"1,100,108,910",CLINICA SANARTE LTDA,"830,118,794",NO,CALLE 74A # 20C-12,CALLE 74A # 20C-12,6040104,Privada,1,4.7146071,-74.125309,Engativá
308,11,Bogotá D.C,11001,BOGOTÁ,"1,100,108,930",FUNDACION ORIENTAME,"860,049,972",NO,CRA 18 # 33 A 27,CRA 18 # 33 A 27,(601) 9173500 Ext 204 - 430 - 3504997456,Privada,4,4.5770806,-74.1142508,Rafael Uribe Uribe
309,11,Bogotá D.C,11001,BOGOTÁ,"1,100,108,935",UNIDAD DE ESTETICA DENTAL S A S,"830,088,051",NO,CL 92 11 51 LC 2,CL 92 11 51 LC 2,7461111 - 4320020 - 3107862504,Privada,1,4.6810737,-74.0663246,Barrios Unidos
310,11,Bogotá D.C,11001,BOGOTÁ,"1,100,108,952",CONGREGACION DE LAS HERMANAS DE LA CARIDAD DOMINICAS DE LA PRESENTACION DE LA SANTISIMA VIRGEN,"860,006,745",NO,Calle 45 C No. 22-02,Calle 45 C No. 22-02,5727777 - 7420540,Privada,1,4.6309288,-74.0575129,Chapinero
311,11,Bogotá D.C,11001,BOGOTÁ,"1,100,108,972",LIGA CONTRA EL CANCER SECCIONAL BOGOTA,"860,043,211",NO,CALLE 56 # 6 28,CALLE 56 # 6 28,3458346,Privada,1,4.640057,-74.0585565,Chapinero
312,11,Bogotá D.C,11001,BOGOTÁ,"1,100,108,974",FUNDACION DE REHABILITACION INTEGRAL LUDUS,"830,090,289",NO,DG 88 # 27 - 34,DG 88 # 27 - 34,2561374 - 2561366 - 3165304548,Privada,1,4.5037341,-74.1069598,Usme
313,11,Bogotá D.C,11001,BOGOTÁ,"1,100,108,975",INSTITUTO MEDICO NIEHANS ZELLEN SAS,"830,068,566",NO,CR 18 # 80 - 52 CONSULTORIO 201,CR 18 # 80 - 52 CONSULTORIO 201,7448597 - 3108193777,Privada,1,4.5770806,-74.1142508,Rafael Uribe Uribe
314,11,Bogotá D.C,11001,BOGOTÁ,"1,100,108,995",ASOCIACIÓN PROFAMILIA,"860,013,779",NO,CALLE 34 # 14 52,CALLE 34 # 14 52,1-3390900 Ext. 1101,Privada,1,4.6247088,-74.0789546,Teusaquillo
315,11,Bogotá D.C,11001,BOGOTÁ,"1,100,109,035",ARMONIA DENTO FACIAL ADF S.A.S,"830,117,559",NO,CRA 11 A # 97 19,CRA 11 A # 97 19,6369188,Privada,1,4.673889,-74.0488184,Chapinero
316,11,Bogotá D.C,11001,BOGOTÁ,"1,100,109,056",CENTRO DE INVESTIGACIONES ONCOLOGICAS CLINICA SAN DIEGO CIOSAD SAS,"830,099,212",NO,DIAG. 33 BIS -A #14-37,AC 33 # 14 37,3208400 ext 420 - 3204924655,Privada,1,4.6224703,-74.0714271,Teusaquillo
317,11,Bogotá D.C,11001,BOGOTÁ,"1,100,109,098",FUNDACION PARA EL DESARROLLO DE LAS CIENCIAS DE LA COMUNICACIÓN SOCIAL FUNDEMOS IPS,"860,050,914",NO,CARRERA 16 A 79 - 94,CARRERA 16 A 79 - 94,546 06 40,Privada,1,4.7473303,-74.0378721,Usaquén
319,11,Bogotá D.C,11001,BOGOTÁ,"1,100,109,111",FUNDACION CARDIO INFANTIL INSTITUTO DE CARDIOLOGIA,"860,035,992",NO,CL  163 A No 13 B 60,CL  163 A No 13 B 60,6672727 Ext. 53304,Privada,1,4.7394885,-74.0275939,Usaquén
320,11,Bogotá D.C,11001,BOGOTÁ,"1,100,109,113",CONSULTORIO RADIOLOGICO ORAL CEDRITOS SOCIEDAD POR ACCIONES SIMPLIFICADA SIGLA RADIOLOGICO ORAL CEDRITOS S A S,"830,097,069",NO,KR 18 # 140 12 CS 202,KR 18 # 140 12 CS 202,6012749706,Privada,1,4.5770806,-74.1142508,Rafael Uribe Uribe
321,11,Bogotá D.C,11001,BOGOTÁ,"1,100,109,115",CONSULTORIO DE RADIOLOGÍA ORAL CHAPINERO S.A.S,"830,001,599",NO,KR 17# 60-41 PI 3,KR 17# 60-41 PI 3,5712490745,Privada,1,4.6151527,-74.0732067,Los Mártires
323,11,Bogotá D.C,11001,BOGOTÁ,"1,100,109,124",UNIDAD MEDICA BETA SALUD LTDA,"830,079,896",NO,Carrera 21 # 52 A 12,Carrera 21 # 52 A 12,7598746 - 3114752427,Privada,1,4.6410656,-74.0719566,Teusaquillo
326,11,Bogotá D.C,11001,BOGOTÁ,"1,100,109,177",CLINICA DEL SENO IPS LTDA,"830,117,759",NO,CRA 11 # 68 36,CRA 11 # 68 36,3478100,Privada,1,4.5719217,-74.1015422,Rafael Uribe Uribe
327,11,Bogotá D.C,11001,BOGOTÁ,"1,100,109,178",CPO S A,"800,149,453",NO,KR 20 23 23 SUR,KR 20 23 23 SUR,3612888,Privada,2,4.5424785,-74.1523935,Ciudad Bolivar
329,11,Bogotá D.C,11001,BOGOTÁ,"1,100,109,185",CLINICA INTERNACIONAL DE CIRUGIA S.A.S,"800,074,904",NO,KR 17 No. 39B - 04,KR 17 No. 39B - 04,3142525781 3103849953 6969257,Privada,1,4.6151527,-74.0732067,Los Mártires
331,11,Bogotá D.C,11001,BOGOTÁ,"1,100,109,199",Fundación Javeriana de Servicios Medico Odontologicos Interuniversitarios Carlos Marquez Villegas-Javesalud,"830,018,305",NO,KR 19B # 166 96,KR 19B # 166 96,6370180-3133932019,Privada,1,4.5595465,-74.1435493,Ciudad Bolivar
332,11,Bogotá D.C,11001,BOGOTÁ,"1,100,109,208",FUNDACION SEMILLAS DE VIDA,"830,104,502",NO,CL 35 # 21 20 - Barrio:LA SOLEDAD,CL 35 # 21 20 - Barrio:LA SOLEDAD,3176460904,Privada,2,4.6228426,-74.0672952,Santa Fe
333,11,Bogotá D.C,11001,BOGOTÁ,"1,100,109,221",SERVIMED INSTITUCION PRESTADORA DE SERVICIOS DE SALUD  S.A. SERVIMED I.P.S. S.A.,"830,002,272",NO,CRA 14  No 39 - 49  - Barrio:TEUSAQUILLO,KRA  14  No 39 - 49  - Barrio:TEUSAQUILLO,8051979,Privada,8,4.6754389,-74.0512977,Chapinero
334,11,Bogotá D.C,11001,BOGOTÁ,"1,100,109,224",EMPRESA SOCIAL DEL ESTADO HOSPITAL UNIVERSITARIO DE LA SAMARITANA,"899,999,032",SI,CRA 8 No. 0-29 SUR,CRA 8 No. 0-29 SUR,091 3371567,Pública,1,4.5596761,-74.1157367,Rafael Uribe Uribe
335,11,Bogotá D.C,11001,BOGOTÁ,"1,100,109,225",CLUB DE LEONES BOGOTA ANTONIO NARIÑO,"860,046,564",NO,Carrera 95 # 85 10  Piso 1 INT 1,Carrera 95 # 85 10  Piso 1 INT 1,4304181 - 4304184 - 3112436098,Privada,1,4.6762147,-74.1285508,Fontibón
336,11,Bogotá D.C,11001,BOGOTÁ,"1,100,109,271",OPTIKUS S.A.,"830,090,640",NO,AVENIDA CARRERA 45 # 103 - 41,AVENIDA CARRERA 45 # 103 - 41,(571) 6020845 3008960111,Privada,1,4.7364014,-74.0485756,Usaquén
338,11,Bogotá D.C,11001,BOGOTÁ,"1,100,109,295",ASOCIACION COLOMBIANA DE DIABETES,"860,053,578",NO,DG 39 A BIS # 14  78,DG 39 A BIS # 14  78,7440888,Privada,1,4.6276994,-74.0693632,Teusaquillo
339,11,Bogotá D.C,11001,BOGOTÁ,"1,100,109,316",LABORATORIO CLINICO MART SALUD S.A.S,"830,068,715",NO,AK 15 # 103 37  P2  CONS 111 - Barrio:USAQUEN,AK 15 # 103 37  P2  CONS 111 - Barrio:USAQUEN,3106238003    3112229249,Privada,3,4.7162768,-74.0431074,Usaquén
340,11,Bogotá D.C,11001,BOGOTÁ,"1,100,109,361",CLINICA DE MARLY S.A,"860,002,541",NO,CL 50 # 9 67,CL 50 # 9 67,3436600,Privada,1,4.6374749,-74.0669591,Teusaquillo
341,11,Bogotá D.C,11001,BOGOTÁ,"1,100,109,409",LABORATORIO DE ORTESIS Y PROTESIS GILETE Y CIA.  LIMITADA,"800,085,883",NO,CALLE 33A # 13 55 1ER PISO ÁREA DE REHABILITACIÓN Y CONSULTORIOS,CALLE 33A # 13 55 1ER PISO ÁREA DE REHABILITACIÓN Y CONSULTORIOS,7470812-3103049422,Privada,1,4.6227302,-74.0731961,Teusaquillo
343,11,Bogotá D.C,11001,BOGOTÁ,"1,100,109,444",Resonancia Magnética San José S.A.,"800,233,981",,Calle 10 #18-75 entrada 4 parqueadero,Calle 10 #18-75 entrada 4 parqueadero,3713402,Privada,1,4.6463123,-74.1442958,Kennedy
344,11,Bogotá D.C,11001,BOGOTÁ,"1,100,109,456",HOSPITAL UNIVERSITARIO SAN IGNACIO,"860,015,536",NO,CRA 7 # 40 62,CRA 7 # 40 62,5946161,Privada,1,4.5568144,-74.1205072,Rafael Uribe Uribe
345,11,Bogotá D.C,11001,BOGOTÁ,"1,100,109,457",DRC VISION CENTER S A S,"800,219,086",,CRA 13 No 38-72,CRA 13 No 38-72,8053643,Privada,1,4.5592249,-74.1314313,Tunjuelito
346,11,Bogotá D.C,11001,BOGOTÁ,"1,100,109,488",MEDISHI MEDICINA SEGURIDAD E HIGIENE INDUSTRIAL SAS,"800,025,199",NO,CL 77 A # 12 35,CL 77 A # 12 35,4432320 / 3108085286,Privada,1,4.7122842,-74.1192441,Engativá
348,11,Bogotá D.C,11001,BOGOTÁ,"1,100,109,523",VIRREY SOLIS IPS. S.A.,"800,003,765",NO,CRA 67 NO 4G 68,CRA 67 NO 4G 68,4473535,Privada,10,4.6726392,-74.0882136,Barrios Unidos
349,11,Bogotá D.C,11001,BOGOTÁ,"1,100,109,526",UNIDAD DE RADIOLOGIA PANOREX PALERMO LTDA,"800,241,455",NO,Calle 45 a # 20 - 96 consultorio 201,Calle 45 a # 20 - 96 consultorio 201,2671883,Privada,1,4.6347762,-74.0773038,Teusaquillo
350,11,Bogotá D.C,11001,BOGOTÁ,"1,100,109,562",EQUILIBRIO S.A.S,"830,075,323",NO,CALLE 118 # 47 A - 12,CALLE 118 # 47 A - 12,8050025,Privada,1,4.6970306,-74.0385509,Usaquén
351,11,Bogotá D.C,11001,BOGOTÁ,"1,100,109,584",CORSANEMOS SAS,"830,099,865",,Calle 72 B No. 71 D - 30,Calle 72 B No. 71 D - 30,9260143 - 9260555 - 3108544097,Privada,1,4.6940469,-74.101832,Engativá
352,11,Bogotá D.C,11001,BOGOTÁ,"1,100,109,599",ADMINISTRADORA COUNTRY S.A.S,"830,005,028",NO,KR 16 # 82 57,KR 16 # 82 57,5300470 Ext. 1772 - 2973,Privada,1,4.5902581,-74.0944554,Antonio Nariño
353,11,Bogotá D.C,11001,BOGOTÁ,"1,100,109,612",CENTRO DE ESPECIALIDADES MEDICO QUIRURGICAS  LIMITADA CLINICA CEMEQ LTDA,"830,103,663",NO,CALLE 45 A  # 27 20,CALLE 45 A  # 27 20,3106369467 - 3114488055 - 5551195,Privada,1,4.6347762,-74.0773038,Teusaquillo
354,11,Bogotá D.C,11001,BOGOTÁ,"1,100,109,642",CARDIONET LTDA,"830,076,652",NO,CALLE 97 No 23-37 consultorio 604,CALLE 97 No 23-37 consultorio 604,6010606,Privada,1,4.6804109,-74.0454642,Chapinero
355,11,Bogotá D.C,11001,BOGOTÁ,"1,100,109,652",FUNDACION PARA LA SALUD LA BIOETICA Y EL MEDIO AMBIENTE - FUNSABIAM,"830,041,883",,Cra 17  No   36 62,Cra 17  No   36 62,4672356-3508131373-9054615,Privada,2,4.7363233,-74.0423458,Usaquén
358,11,Bogotá D.C,11001,BOGOTÁ,"1,100,109,757",AAAA ACADEMIA ABSCRITA  A ASOCIACION DE ESPECIALISTAS S.A.S,"860,074,971",NO,AV CARACAS # 30 51,AV CARACAS # 30 51,2323100/3114488055,Privada,1,4.5833176,-74.09862,Antonio Nariño
359,11,Bogotá D.C,11001,BOGOTÁ,"1,100,109,831",SOMNARUM S.A.S,"830,001,004",NO,CRA 19 # 84 - 17 CONSULTORIO 302,CRA 19 # 84 - 17 CONSULTORIO 302,6366514/6366515,Privada,1,4.5397167,-74.1514746,Ciudad Bolivar
360,11,Bogotá D.C,11001,BOGOTÁ,"1,100,109,859",ASOCIADOS UNIDAD NACIONAL  ODONTOLOGICA A UNO LTDA,"830,060,364",NO,AC 53 # 59 03,AC 53 # 59 03,2220297,Privada,1,4.6404975,-74.0663146,Chapinero
361,11,Bogotá D.C,11001,BOGOTÁ,"1,100,109,895",PEDIMEDICAL CENTER CIA SAS Y CUYA SIGLA SERA PEDIMEDICAL CENTER,"830,020,462",,CR 53 102 A 36,CR 53 102 A 36,6237093-6237095,Privada,1,4.6400396,-74.0990962,Teusaquillo
362,11,Bogotá D.C,11001,BOGOTÁ,"1,100,109,941",FRESENIUS MEDICAL CARE COLOMBIA S.A,"830,007,355",NO,AV CARRERA 7 No. 156-10 piso 26,AV CARRERA 7 No. 156-10 piso 26,2941400,Privada,1,4.7472928,-74.0228248,Usaquén
363,11,Bogotá D.C,11001,BOGOTÁ,"1,100,109,977",SERVICIOS GRANCOLOMBIANA IPS  SAS,"830,069,567",NO,AVENIDA CALLE 134 # 7-83,AVENIDA CALLE 134 # 7-83 T2 P4 OF 243-244,2746397,Privada,1,4.7143814,-74.0379997,Usaquén
364,11,Bogotá D.C,11001,BOGOTÁ,"1,100,110,006",SOCIEDAD DE SERVICIOS OCULARES SAS,"800,119,574",NO,Carrera 16 No. 82 - 51    Piso dos,Carrera 16 No. 82 - 51    Piso dos,6181044,Privada,1,4.5902581,-74.0944554,Antonio Nariño
365,11,Bogotá D.C,11001,BOGOTÁ,"1,100,110,054",CENTRO DE SALUD JUAN BONAL,"830,040,342",NO,KR 5 # 94 71 SUR,KR 5 # 94 71 SUR,7733977,Privada,1,4.5036592,-74.1082054,Usme
366,11,Bogotá D.C,11001,BOGOTÁ,"1,100,110,058",MEDICOS ASOCIADOS S.A.,"860,066,191",NO,CALLE 58 A # 37 10,CALLE 58 A # 37 10,3752720,Privada,5,4.6494381,-74.0836671,Teusaquillo
367,11,Bogotá D.C,11001,BOGOTÁ,"1,100,110,091",TALLER PSICOMOTRIZ CRISALIDA EMPRESA UNIPERSONAL,"830,066,670",NO,CLL 121 # 71 A 34,CLL 121 # 71 A 34,6433707,Privada,1,4.6970207,-74.0263255,Usaquén
368,11,Bogotá D.C,11001,BOGOTÁ,"1,100,110,113",INSTITUTO LUIS G. PAEZ,"860,007,371",NO,CRA 5 # 65 50,CRA 5 # 65 50,3452530 -  322 7668119,Privada,1,4.5036592,-74.1082054,Usme
369,11,Bogotá D.C,11001,BOGOTÁ,"1,100,110,149",ORALNET E.U.,"830,081,417",NO,AVENIDA CALLE 116 NUMERO 16-45 PI 2 MEZZANINE,AVENIDA CALLE 116 NUMERO 16-45 PI 2 MEZZANINE,6295977 - 3105695699,Privada,2,4.699317,-74.0537798,Usaquén
370,11,Bogotá D.C,11001,BOGOTÁ,"1,100,110,152",BOGOTA LASER OCULAR SURGERY CENTER S.A,"830,081,128",NO,CL 113 # 7 45 TO B OF 1410 - 613 - 1418 - 611,CL 113 # 7 45 TO B OF 1410 - 613 - 1418 - 611,6294919-3105851582,Privada,1,4.6979522,-74.0598871,Suba
371,11,Bogotá D.C,11001,BOGOTÁ,"1,100,110,158",ORAL SALUD CLINICAS ODONTOLOGICAS SAS,"830,030,160",,CALLE 8 SUR N° 35 A 32,AC 8 SUR N° 35 A 32,4082288/3123978525,Privada,1,4.575717,-74.0791051,San Cristobal
372,11,Bogotá D.C,11001,BOGOTÁ,"1,100,110,232",ASOCIACION SAN BARTOLOME APOSTOL  CENTRO MEDICO,"860,517,494",NO,KR 59 A # 129 B 01,KR 59 A # 129 B 01,2538825 - 3152059917 - 3114988063,Privada,1,4.6503313,-74.0940529,Teusaquillo
373,11,Bogotá D.C,11001,BOGOTÁ,"1,100,110,251",FUNDACION NEUMOLOGICA COLOMBIANA,"800,180,553",NO,KR 13 B # 161 85,KR 13 B # 161 85,7428900,Privada,1,4.740702,-74.0340585,Usaquén
374,11,Bogotá D.C,11001,BOGOTÁ,"1,100,110,253",SUBA MEDICAL IPS LIMITADA,"830,023,798",NO,CRA 90 No 147-21 local 1,CRA 90 No 147-21 local 1,6056705 EXT 110-114,Privada,1,4.6319851,-74.1877936,Bosa
375,11,Bogotá D.C,11001,BOGOTÁ,"1,100,110,294",Dental Image Ltda,"830,112,975",NO,KR 13 A # 89 38 CS 705-706,KR 13 A # 89 38 CS 705-706,6183535-8137934,Privada,1,4.7618301,-74.0351527,Usaquén
376,11,Bogotá D.C,11001,BOGOTÁ,"1,100,110,306",CARDIOPEDIATRAS LTDA,"830,103,660",NO,KR 16 # 82 74 CS 605,KR 16 # 82 74 CS 605,6919248,Privada,1,4.5902581,-74.0944554,Antonio Nariño
377,11,Bogotá D.C,11001,BOGOTÁ,"1,100,110,310",SOCIEDAD ENTORNO Y COMPAÑIA LTDA,"830,034,865",NO,TV 59 # 106 12,TV 59 # 106 12,7463261 - 3153361884,Privada,1,4.5792938,-74.1614262,Ciudad Bolivar
378,11,Bogotá D.C,11001,BOGOTÁ,"1,100,110,380",CLINICA DE LASER DE PIEL SAS,"811,014,239",NO,CRA 13A # 98-16,Kra 13A # 98-16,2576818/6352100,Privada,1,4.603187,-74.0795614,Santa Fe
379,11,Bogotá D.C,11001,BOGOTÁ,"1,100,110,381",GENETICA MOLECULAR DE COLOMBIA S.A.S.,"830,112,625",NO,CARRERA 47 No. 91-51,CARRERA 47 No. 91-51,(571) 7551413,Privada,1,4.5731881,-74.1587124,Ciudad Bolivar
380,11,Bogotá D.C,11001,BOGOTÁ,"1,100,110,400",Coomeva Medicina Prepagada S.A,"805,009,741",NO,Calle 102 Nº 14A 70,Calle 102 Nº 14 A-70 P7,3199555 ext 15500 / 3186954221,Privada,3,4.6881404,-74.0541994,Usaquén
381,11,Bogotá D.C,11001,BOGOTÁ,"1,100,110,447",ALTA VISION SAS,"830,111,080",NO,Cr 16 A 80 - 06 Of 701,Cr 16 A 80 - 06 Of 701,6164585,Privada,1,4.7473303,-74.0378721,Usaquén
382,11,Bogotá D.C,11001,BOGOTÁ,"1,100,110,488",CLÍNICA VASCULAR DE BOGOTA ALBERTO MUÑOZ HOYOS SAS,"800,201,018",NO,CL 35 # 24 32 PISO #1,CL 35 # 24 32 PISO #1,2329998,Privada,1,4.6250934,-74.0759507,Teusaquillo
383,11,Bogotá D.C,11001,BOGOTÁ,"1,100,110,582",ESTUDIOS ANATOMOPATOLOGICOS LTDA,"830,096,658",NO,AV carrera 19 # 95-31/55  OF 510-511,AV carrera 19 # 95-31/55  OF 510-511,3463573,Privada,1,4.683006600000001,-74.05289579670497,Chapinero
384,11,Bogotá D.C,11001,BOGOTÁ,"1,100,110,589",SOMIDE LTDA SERVICIOS ODONTOLOGICOS MEDICOS E IMAGENES DIAGNOSTICAS EMPRESARIALES,"830,005,378",,CRA 100 # 22a- 12,k 100 n 22a- 12,4158017- 4158496,Privada,1,4.7045807,-74.1154658,Engativá
385,11,Bogotá D.C,11001,BOGOTÁ,"1,100,110,677",INVERSIONES CREAR RAMA S.A,"830,010,671",NO,CRA 7 # 17 - 75 LOCAL 13 - Barrio:CENTRO,CRA 7 # 17 - 75 LOCAL 13 - Barrio:CENTRO,3369811,Privada,17,4.5568144,-74.1205072,Rafael Uribe Uribe
386,11,Bogotá D.C,11001,BOGOTÁ,"1,100,110,783",MEDICENTRO ANDIA REY LTDA.,"860,090,621",NO,CRA 47A # 114A-39,KR 47 A (ANTES TV 33C) # 114A-39,2132421,Privada,1,4.7011153,-74.0574205,Suba
388,11,Bogotá D.C,11001,BOGOTÁ,"1,100,110,861",CLINICA LOYOLA SOCIEDAD POR ACCIONES SIMPLIFICADA,"830,103,995",NO,KR 19 A # 84 64,KR 19 A # 84 64,6168252 ext 108,Privada,2,4.5589394,-74.1483859,Ciudad Bolivar
389,11,Bogotá D.C,11001,BOGOTÁ,"1,100,110,863",ORGANIZACIÓN INGENIERÍA CIVIL Y ELECTRÓNICA LIMITADA O.I.C.E SIGLA O.I.C.E,"860,514,836",,AK 7 No. 32-29 Piso 26 Oficina 2604,AK 7 No. 32-29 Piso 26 Oficina 2604,3113812985,Privada,1,4.7527835,-74.0244014,Usaquén
390,11,Bogotá D.C,11001,BOGOTÁ,"1,100,110,879",EMERMEDICA S.A. SERVICIOS DE AMBULANCIA PREPAGADOS,"800,126,785",,Carrera 19B No 168 - 35,Carrera 19B No 168 - 35,3077098,Privada,1,4.7483667,-74.0424589,Usaquén
391,11,Bogotá D.C,11001,BOGOTÁ,"1,100,110,909",DDS LTDA CLINICA DE REHABILITACION DENTAL,"830,093,411",,CL 97 A # 8 41,CL 97 A # 8 41,6104900,Privada,1,4.6973781,-74.0819773,Suba
392,11,Bogotá D.C,11001,BOGOTÁ,"1,100,110,939",SAN LUIS UNIDAD DE CRONICOS Y PALIATIVOS SAS,"830,020,398",NO,CL 127B  45 92,CL 127B  45 92,2583209,Privada,1,4.7047795,-74.0300146,Usaquén
394,11,Bogotá D.C,11001,BOGOTÁ,"1,100,111,048",CENTRO DE DIAGNOSTICO Y TRATAMIENTO CENDIATRA SOCIEDAD POR ACCIONES SIMPLIFICADAS CENDIATRA SAS,"800,180,176",NO,CALLE 19 NO. 3-50 PISO 12,CALLE 19 NO. 3-50 PISO 12,2826817 EXT 1130 - 1126,Privada,1,4.6571599,-74.1297501,Fontibón
396,11,Bogotá D.C,11001,BOGOTÁ,"1,100,111,138",AXA ASISTENCIA IPS SAS,"830,081,501",NO,"CALLE 97 23 - 37 EDIFICIO DALÍ, PISO 4, CONSULTORIO 401","CALLE 97 23 - 37 EDIFICIO DALÍ, PISO 4, CONSULTORIO 401",6446156,Privada,1,4.6804109,-74.0454642,Chapinero
398,11,Bogotá D.C,11001,BOGOTÁ,"1,100,111,142",SERVICIOS ADOM SAS sigla ADOM Salud Domiciliaria,"830,001,237",,KR 49 93 17,KR 49 93 17,6103520-3138862398,Privada,1,4.7014088,-74.0584385,Suba
399,11,Bogotá D.C,11001,BOGOTÁ,"1,100,111,145",ORGANIZACION SANTA LUCIA S.A.,"890,900,650",,AV CARRERA 72 #80-94 LC 1-61 - Barrio:ENGATIVA,AV CARRERA 72 #80-94 LC 1-61 - Barrio:ENGATIVA,3137217589,Privada,4,4.6468867,-74.1298356,Kennedy
400,11,Bogotá D.C,11001,BOGOTÁ,"1,100,111,158",ASISTIR SALUD SAS,"800,216,958",NO,Calle 64G N° 90A-40,Calle 64G N° 90A-40,2231145 EXT 215-224 - 3167436411,Privada,3,4.685949,-74.1113783,Engativá
401,11,Bogotá D.C,11001,BOGOTÁ,"1,100,111,221",Acudir SAS,"830,012,324",,Calle 52 A No. 9-26 cons. 203,Calle 52 A No. 9-26 cons. 203,2172829,Privada,1,4.63935065,-74.06408122228774,Chapinero
402,11,Bogotá D.C,11001,BOGOTÁ,"1,100,111,242",FUNDACION PREVER I.P.S.,"800,123,927",NO,KR 48 # 123 10,KR 48 # 123 10,6404452-3155860099,Privada,1,4.6999481,-74.0583472,Suba
403,11,Bogotá D.C,11001,BOGOTÁ,"1,100,111,622",CARDIOLOGICAS SAS,"800,113,386",NO,KR 23 # 45C 31  CS 617,KR 23 # 45C 31  CS 617,2870590 - 3175919879,Privada,1,4.6361939,-74.0742317,Teusaquillo
404,11,Bogotá D.C,11001,BOGOTÁ,"1,100,111,775",CENTRO DE CIRUGIA AMBULATORIA IPS LTDA,"830,005,127",NO,CL 89 A # 20 57,CL 89 A # 20 57,5185019,Privada,1,4.706549,-74.0918884,Engativá
405,11,Bogotá D.C,11001,BOGOTÁ,"1,100,111,819",MARIA TERESA GALIANO SERVIMED SAS,"800,021,891",NO,CL 50 # 8 24 CS  402 403 405 407 408,CL 50 # 8 24 CS  402 403 405 407 408,3101315,Privada,1,4.6374749,-74.0669591,Teusaquillo
406,11,Bogotá D.C,11001,BOGOTÁ,"1,100,112,289",FAMICARE CLINICA DIA S.A.S.,"830,122,608",NO,Carrera 24 # 86A - 12,Carrera 24 # 86A - 12,7461630,Privada,1,4.5845594,-74.1050598,Antonio Nariño
407,11,Bogotá D.C,11001,BOGOTÁ,"1,100,112,336",LABORATORIO CLINICO BIOLAB SAS,"830,130,006",NO,Cra 45a # 95-70,Cra 45a # 95-70,8077011,Privada,1,4.5712869,-74.1584799,Ciudad Bolivar
408,11,Bogotá D.C,11001,BOGOTÁ,"1,100,112,374",ASISDERMA SAS,"830,126,960",NO,CL  99 # 48 06 CS 504 - Barrio:CASTELLANA,CL  99 # 48 06 CS 504 - Barrio:CASTELLANA,(091) 6044276,Privada,2,4.6791506,-74.0389205,Chapinero
409,11,Bogotá D.C,11001,BOGOTÁ,"1,100,112,408",RADA AESTHETIC Y SPA SAS - BOGOTA,"830,130,407",NO,KR 17 No. 109-47,KR 17 No. 109-47,4855151 ext 1020 - 3102716395,Privada,1,4.6151527,-74.0732067,Los Mártires
410,11,Bogotá D.C,11001,BOGOTÁ,"1,100,112,413",MD DIAGNOSTICOS SAS,"830,128,120",NO,AK 20 # 85 A - 45,AK 20 # 85 A - 45,2123360,Privada,5,4.6749673,-74.0595563,Barrios Unidos
411,11,Bogotá D.C,11001,BOGOTÁ,"1,100,112,425",A&G SERVICIOS DE SALUD S.A.S.,"832,001,110",NO,AC 127 # 71 96,AC 127 # 71 96,7455901-7455902-7455905,Privada,1,4.7036464,-74.0331045,Usaquén
412,11,Bogotá D.C,11001,BOGOTÁ,"1,100,112,437",RIESGO DE FRACTURA S.A. CAYRE,"830,027,158",NO,CR 56 NO. 9 - 91 LC 18 P 1 - Barrio:SALAZAR GOMEZ,CR 56 NO. 9 - 91 LC 18 P 1 - Barrio:SALAZAR GOMEZ,3102423837,Privada,5,4.6515338,-74.087924,Teusaquillo
413,11,Bogotá D.C,11001,BOGOTÁ,"1,100,112,503",BIOMERTLAB LTDA,"830,131,694",NO,AV CALLE 127 No 20-78 CONSULTORIO 205,AV CALLE 127 No 20-78 CONSULTORIO 205,6154711,Privada,1,4.7068353,-74.0545386,Suba
414,11,Bogotá D.C,11001,BOGOTÁ,"1,100,112,552",BIO ALGA SAS,"830,110,759",,KR 11 A # 98 15,KR 11 A # 98 15,6107147/3153335550,Privada,1,4.5838032,-74.0915704,Antonio Nariño
415,11,Bogotá D.C,11001,BOGOTÁ,"1,100,112,560",SOSALUD SAS,"830,134,195",,CL 130 #58 20 LC 2 90,CL 130 #58 20 LC 2 90,3209465519,Privada,1,4.7381366,-74.1286024,Suba
416,11,Bogotá D.C,11001,BOGOTÁ,"1,100,112,713",ENDOCARE SAS,"830,128,615",NO,"CL 106 # 54-60 CONSULTORIO 1, 2, 3, 4, 5, 7, 8, 9, 10","CL 106 # 54-60 CONSULTORIO 1, 2, 3, 4, 5, 7, 8, 9, 10",6132411 - 3182870677,Privada,1,4.685108,-74.0356449,Usaquén
418,11,Bogotá D.C,11001,BOGOTÁ,"1,100,112,756",ENDOTHERAPEUTICS SAS,"830,115,566",NO,KR 13 # 49  40 CS 525,KR 13 # 49  40 CS 525,3383864,Privada,1,4.5592249,-74.1314313,Tunjuelito
419,11,Bogotá D.C,11001,BOGOTÁ,"1,100,112,762",SERVISALUD OCUPACIONAL IPS SAS,"830,136,321",NO,CL 27 SUR # 14 43,CL 27 SUR # 14 43,3006168831,Privada,1,4.5796529,-74.1072779,Rafael Uribe Uribe
420,11,Bogotá D.C,11001,BOGOTÁ,"1,100,112,797",CLINICA SEQUOIA SAS,"830,130,028",NO,CL 123 # 7 07 OF 206,CL 123 # 7 07 OF 206,6194841-6194852,Privada,1,4.7028922,-74.0483615,Usaquén
421,11,Bogotá D.C,11001,BOGOTÁ,"1,100,112,808",FISIOSPORT LTDA,"830,136,757",NO,CALLE 50 # 8 24 OF 505,CALLE 50 # 8 24 OF 505,3101279,Privada,1,4.6374749,-74.0669591,Teusaquillo
422,11,Bogotá D.C,11001,BOGOTÁ,"1,100,112,839",ORGANIZACIÓN DE SISTEMAS DENTALES - OSISDENT LTDA-,"830,120,303",NO,KR 14 # 92 77,KR 14 # 92 77,2576200,Privada,1,4.6754389,-74.0512977,Chapinero
423,11,Bogotá D.C,11001,BOGOTÁ,"1,100,112,848",LABORATORIO MEDICO ECHAVARRIA S.A.S,"890,906,793",NO,CR 44 # 20 A 05,CR 44 # 20 A 05,(1)2444888,Privada,1,4.5741595,-74.1534115,Ciudad Bolivar
424,11,Bogotá D.C,11001,BOGOTÁ,"1,100,113,009",CENTRO DE REHABILITACION Y ESTÉTICA ORAL SAS - SIGLA CREO SAS,"830,136,033",NO,CALLE 57 Nº 21 - 26,CALLE 57 Nº 21 - 26,(57)(1)2493888,Privada,2,4.6487814,-74.0865093,Teusaquillo
425,11,Bogotá D.C,11001,BOGOTÁ,"1,100,113,132",SMILE QUALITY CLINICA ODONTOLOGICA ESPECIALIZADA S.A.S,"830,135,332",NO,cl 123 # 7a 17 cs 201,cl 123 # 7a 17 cs 201,51-091-6297109,Privada,1,4.7028922,-74.0483615,Usaquén
426,11,Bogotá D.C,11001,BOGOTÁ,"1,100,113,402",FISOSALUD (FISIOTERAPIA SALUD OCUPACIONAL) S.A.S. SIGLA FISOSALUD S.A.S,"830,139,066",,CRA 20 No. 34 - 44,CRA 20 No. 34 - 44,2451272,Privada,1,4.5611836,-74.1500928,Ciudad Bolivar
427,11,Bogotá D.C,11001,BOGOTÁ,"1,100,113,406",ENLACE LAB S.A.S,"830,145,128",NO,Cl 120A 7 48,Cl 120A 7 48,2136192-3152820115,Privada,2,4.6967402,-74.0298759,Usaquén
428,11,Bogotá D.C,11001,BOGOTÁ,"1,100,113,430",Unidad de Diagnóstico y Ecografía MaternoFetal y Ginecológico el Bosque SAS - Ecodiagnóstico el Bosque SAS,"830,141,084",,AC. 134 Nº 7B-83 Of 819 CS2 CS3,AC. 134 Nº 7B-83 Of 819 CS2 CS3,6331745,Privada,1,4.71144255,-74.03107490323647,Usaquén
429,11,Bogotá D.C,11001,BOGOTÁ,"1,100,113,473",PRAXIS DE COLOMBIA LTDA,"830,120,343",,AC 127 NO. 50-21 piso 1,AC 127 NO. 50-21 piso 1,6208190,Privada,1,4.7036464,-74.0331045,Usaquén
430,11,Bogotá D.C,11001,BOGOTÁ,"1,100,113,483",INTEGRAL SALUD LTDA,"830,031,646",NO,CL 109 # 17 A 35 CS 401,CL 109 # 17 A 35 CS 401,6021070,Privada,1,4.6878834,-74.0348769,Usaquén
431,11,Bogotá D.C,11001,BOGOTÁ,"1,100,113,508",MEDICINA LABORAL S.A.S,"830,142,721",NO,CALLE 27 # 27-21 - Barrio:TEUSAQUILLO,CALLE 27 # 27-21 - Barrio:TEUSAQUILLO,7446346  3232753421,Privada,4,4.6239833,-74.0779083,Teusaquillo
432,11,Bogotá D.C,11001,BOGOTÁ,"1,100,113,651",UNIDAD MEDICA TOLCOROMA EU,"830,139,247",NO,KR 7 B # 123 - 58,KR 7 B # 123 - 58,2135984,Privada,1,4.7588248,-74.0136833,Usaquén
434,11,Bogotá D.C,11001,BOGOTÁ,"1,100,113,718",VISUAL CENTER GROUP LTDA,"830,130,201",,CALLE 51  Nº 14-67,CALLE 51  Nº 14-67,2 350273,Privada,1,4.685949,-74.1244493,Fontibón
435,11,Bogotá D.C,11001,BOGOTÁ,"1,100,113,756",SIMSE LTDA LA CUAL SIGNIFICARA SERVICIO INTEGRAL MEDICO ESPECIALIZADO EN SALUD OCUPACIONAL ESCOLAR Y LABORATORIO CLINICO,"830,085,651",NO,KR 19A # 77- 18 CS 608 Y 609,KR 19A # 77- 18 CS 608 Y 609,6912822,Privada,1,4.578189,-74.1146631,Rafael Uribe Uribe
436,11,Bogotá D.C,11001,BOGOTÁ,"1,100,113,784",NEUROCOUNTRY LTDA,"830,145,701",,CARRERA 16A No. 82-46 PISO 1,CARRERA 16A No. 82-46 PISO 1,7043483,Privada,1,4.7473303,-74.0378721,Usaquén
437,11,Bogotá D.C,11001,BOGOTÁ,"1,100,113,937",BODY HEALTH AND BEAUTY GYM BHB LTDA,"830,092,823",NO,AV BOYACA # 8 B - 05,AV BOYACA # 8 B - 05,4125131,Privada,1,4.681783,-74.0988931,Engativá
438,11,Bogotá D.C,11001,BOGOTÁ,"1,100,114,073",S.O.S SALUD S.A.S,"900,007,635",NO,Cra 68G N° 75-71,Cra 68G N° 75-71,601 8000519 -  6014909696,Privada,1,4.6713869,-74.0947232,Engativá
439,11,Bogotá D.C,11001,BOGOTÁ,"1,100,114,074",CENTRO DE ENFERMEDADES NEOPLASICAS S A S,"830,146,850",NO,KR 22 #45 B -38 CS 101,KR 22 #45 B -38 CS 101,6183489/2960513,Privada,1,4.5865266,-74.1016413,Antonio Nariño
440,11,Bogotá D.C,11001,BOGOTÁ,"1,100,114,150",CENTRO DE CONTROL DE CÁNCER SAS,"830,008,300",NO,KR 16 A #  84 - 19,KR 16 A #  84 - 19,2366927,Privada,1,4.5412443,-74.1366156,Ciudad Bolivar
443,11,Bogotá D.C,11001,BOGOTÁ,"1,100,114,343",INMUNOTECH LABORATORIES S.A.S.,"830,141,394",NO,CRA 9 No 48-40 PISO 5,CRA 9 No 48-40 PISO 5,3143997827,Privada,2,4.63551975,-74.06463245099232,Chapinero
444,11,Bogotá D.C,11001,BOGOTÁ,"1,100,114,369",DENTAL ASSISTANCE SAS,"830,143,831",NO,CARRERA 19 NO 120-71 OF 202,CARRERA 19 NO 120-71 OF 202,5205251,Privada,1,4.5397167,-74.1514746,Ciudad Bolivar
446,11,Bogotá D.C,11001,BOGOTÁ,"1,100,114,461",UNIDAD DE VIDEOENDOSCOPIA DEL RESTREPO LTDA,"900,022,390",NO,TV 18 BIS # 14A-21 SUR PISO 2,TRANSV. 18 BIS # 14A-21SUR  PISO2,2399289,Privada,1,4.538614,-74.142303,Ciudad Bolivar
447,11,Bogotá D.C,11001,BOGOTÁ,"1,100,114,524",KALIL & CABALLERO ODONTOLOGOS SAS,"830,510,791",,CARRERA 23 # 124 - 70 CONS 602,CARRERA 23 # 124 - 70 COS 602,6371909-6298497,Privada,1,4.7048534,-74.0528481,Usaquén
448,11,Bogotá D.C,11001,BOGOTÁ,"1,100,114,619",JUAN CARLOS ARBELAEZ ECHEVERRY SAS,"900,028,915",NO,KR 16 A #  82 46 CS 505,KR 16 A #  82 46 CS 505,2960533,Privada,1,4.7473303,-74.0378721,Usaquén
449,11,Bogotá D.C,11001,BOGOTÁ,"1,100,114,648",CORPORACION PARA LA ATENCION Y EL DIAGNOSTICO DE ENFERMEDADES-MILAGROZ,"900,013,939",NO,CL 39 # 19 39 PI 1,CL 39 # 19 39 PI 1,3222061,Privada,1,4.6276573,-74.0774418,Teusaquillo
450,11,Bogotá D.C,11001,BOGOTÁ,"1,100,114,721",Emergencias Medicas 911 Ltda.,"900,036,206",,KR 32B 4-27 PISO 3,KR 32B  4-27 PS 3,805 11 09  - 321 4023823,Privada,1,4.6012546,-74.1080563,Puente Aranda
451,11,Bogotá D.C,11001,BOGOTÁ,"1,100,114,725",OBSTETRICIA & GINECOLOGIA LIMITADA PERO PODRA UTILIZAR LA SIGLA O&G LTDA,"830,507,291",,"AVENIDA CARRERA 45 # 94-23 TORRE B PISOS 6,7 Y 8","AVENIDA CARRERA 45 # 94-23 TORRE B PISOS 6,7 Y 8",7 43 01 50 CELULAR 3223131928,Privada,1,4.7364014,-74.0485756,Usaquén
452,11,Bogotá D.C,11001,BOGOTÁ,"1,100,114,735",Fundación para el Servicio Integral de Atención Médica - Fundación SIAM,"900,034,438",,CL 58 A # 35 A 12,CL 58 A # 35 A 12,2219283,Privada,2,4.6494381,-74.0836671,Teusaquillo
453,11,Bogotá D.C,11001,BOGOTÁ,"1,100,114,744","SOCIEDAD DE CIRUGIA OCULAR Y CENTRO DE TECNOLOGIA OFTALMICA, UNIDAD  LASER S.A.S. SIGLA: S.C.O. Y C.T.O. UNIDAD DE LASER S.A.S.","830,081,879",NO,AC 134 # 7B 83 OF  207,AC 134 # 7B 83 OF  207,5202989  6484323,Privada,1,4.71144255,-74.03107490323647,Usaquén
454,11,Bogotá D.C,11001,BOGOTÁ,"1,100,114,757",CENTRO DE DESARROLLO INTEGRAL DE SALUD FAMILIAR JUAN PABLO II IPS SAS CON SIGLA CEDI SALUD FAMILIAR JUAN PABLO II IPS SAS,"900,031,309",,CL 27 SUR # 18C- 02,CL 27 SUR # 18C- 02,3661905,Privada,1,4.5800431,-74.1071818,Rafael Uribe Uribe
455,11,Bogotá D.C,11001,BOGOTÁ,"1,100,114,796",NEW IMAGE AESTHETIC SURGERY LTDA,"900,040,590",,KR 17 A # 105 - 70,KR 17 A # 105 - 70,6205292,Privada,1,4.6939491,-74.0480921,Usaquén
456,11,Bogotá D.C,11001,BOGOTÁ,"1,100,114,821",RX HORIZONTE IMAGENES MEDICAS Y ODONTOLOGICAS S.A.S,"900,020,872",,AC 116 No 22-72,av cll116 No 22-72,7051705,Privada,4,4.6993273,-74.0546532,Usaquén
457,11,Bogotá D.C,11001,BOGOTÁ,"1,100,114,836",CERTIFICAR SALUD S.A.,"830,109,370",NO,AK 19 114-87 consultorio 200,Avenida 19  114-87 consultorio 200,5235305,Privada,1,4.5621909,-74.1390913,Ciudad Bolivar
458,11,Bogotá D.C,11001,BOGOTÁ,"1,100,114,862",UNIDAD DE FERTILIDAD FERTIVIDA SAS,"900,032,582",NO,KR 19A No. 82-85 CONSULTORIO 401,KR 19A No. 82-85 CONSULTORIO 401,7953130 EXT 4017,Privada,1,4.5589394,-74.1483859,Ciudad Bolivar
459,11,Bogotá D.C,11001,BOGOTÁ,"1,100,115,024",CENTRO ELECTRO AUDITIVO NACIONAL AL SERVICIO DE LA REHABILITACION SAS,"890,316,171",NO,CR 7 N° 41 - 21 AP 202,CR 7 N° 41 - 21 AP 202,3400133,Privada,2,4.5040492,-74.1103841,Usme
460,11,Bogotá D.C,11001,BOGOTÁ,"1,100,115,051",FUNDACION CEDHI - CENTRO DE DESARROLLO HUMANO INTEGRAL,"900,032,841",NO,CALLE 97 # 64 - 19,CALLE 97 # 64 - 19,6955994 - 3124522705,Privada,1,4.6804109,-74.0454642,Chapinero
461,11,Bogotá D.C,11001,BOGOTÁ,"1,100,115,070",UNIVER PLUS S.A.,"900,033,752",NO,Cra 7 B BIS  # 132-38 Edificio Forest Medical Center  Local 104 - Barrio:Bella Suiza,Cra 7 B BIS  # 132-38 Edificio Forest Medical Center  Local 104 - Barrio:Bella Suiza,3164195115 - 3138306090,Privada,15,4.71115745,-74.03003819677329,Usaquén
463,11,Bogotá D.C,11001,BOGOTÁ,"1,100,115,117",CENTRO MEDICO DEPORTIVO MET LTDA,"830,114,167",,AK 45 NO 101-17 PISO 1,AK 45 NO 101-17 PISO 1,6349200-2368230,Privada,1,4.7592003,-74.0455286,Suba
464,11,Bogotá D.C,11001,BOGOTÁ,"1,100,115,221",APM SERVICIOS ASISTENCIALES IPS S.A.S.,"900,055,754",,CARRERA 16 No. 68-74,CARRERA 16 No. 68-74,6067222 - 3106666888,Privada,2,4.5386387,-74.1376314,Ciudad Bolivar
465,11,Bogotá D.C,11001,BOGOTÁ,"1,100,115,235",ODONTOLOGIA ESPECIALIZADA COLOMBIANA CLINICAS DENTALES S.A.,"900,020,963",NO,CL 108 14B 24,CL 108 14B 24,57 091 2154848,Privada,1,4.693373,-74.0483638,Usaquén
466,11,Bogotá D.C,11001,BOGOTÁ,"1,100,115,272",UNIDAD MEDICA RIONEGRO LTDA,"900,050,484",NO,CRA 22 No 83 - 51,CRA 22 No 83 - 51,8050082,Privada,1,4.5486774,-74.1560155,Ciudad Bolivar
467,11,Bogotá D.C,11001,BOGOTÁ,"1,100,115,308",CLINICA ODONTOLOGICA CLINISTETIC LTDA,"830,137,350",NO,CALLE 58 No 17-09,CALLE 58 No 17-09,3478514,Privada,2,4.6513878,-74.0866127,Teusaquillo
469,11,Bogotá D.C,11001,BOGOTÁ,"1,100,115,365",INNOVAR SALUD SAS,"830,095,842",NO,CARRERA 49 D No. 91-56,CARRERA 49 D No. 91-56,7434280-2362066-3174231719,Privada,1,4.7014088,-74.0584385,Suba
470,11,Bogotá D.C,11001,BOGOTÁ,"1,100,115,375",VITAL LIFE SAS,"900,065,988",NO,CALLE 102 A NO. 70G-19,CALLE 102 A NO. 70G-19 Y 70G-21,2719676 - 7579602-7429502 -2269505 - 2269506,Privada,1,4.6900339,-74.0621592,Suba
471,11,Bogotá D.C,11001,BOGOTÁ,"1,100,115,398",CENTRO MEDICO Y ODONTOLOGICO DE LA 170  MAXIDENT CLINICAS ODONTOMEDICAS SAS,"900,021,983",NO,AK 45  168-73,AK 45  168-73,6743737,Privada,1,4.7364014,-74.0485756,Usaquén
472,11,Bogotá D.C,11001,BOGOTÁ,"1,100,115,419",COMPAÑÍA LÍDER EN SALUD OCUPACIONAL LTDA,"830,126,710",,Calle 99 No 49-15,Calle 99 No 49-15,7529061,Privada,1,4.6791506,-74.0389205,Chapinero
473,11,Bogotá D.C,11001,BOGOTÁ,"1,100,115,547",MEDICINA NUCLEAR PALERMO ORGANIZACION SANITAS INTERNACIONAL SAS,"830,135,697",,KR 23 # 45 C 31 LC 6 LC 7,KR 23 # 45 C 31 LC 6 LC 7,2871908,Privada,1,4.6361939,-74.0742317,Teusaquillo
474,11,Bogotá D.C,11001,BOGOTÁ,"1,100,115,658",GENETICA HUMANA E.U.,"900,074,059",NO,Avenida Calle 116 # 9-72  consultorio 605,Avenida Calle 116 # 9-72  consultorio 605,2141275,Privada,1,4.6943073,-74.034846,Usaquén
476,11,Bogotá D.C,11001,BOGOTÁ,"1,100,115,707",DENTOLASER S.A.S.,"830,140,988",NO,KR 21 # 56 03,KR 21 # 56 03,3126688,Privada,1,4.5440148,-74.1532663,Ciudad Bolivar
477,11,Bogotá D.C,11001,BOGOTÁ,"1,100,115,718",ASSISTANCE INTERNATIONAL,"830,118,309",NO,KR 46 # 126-33,KR 46 # 126-33,6947003,Privada,1,4.7660988,-74.0453102,Suba
478,11,Bogotá D.C,11001,BOGOTÁ,"1,100,115,731",CLINICA FERNANDO VANEGAS CANO LTDA.,"900,076,452",NO,KR 16 No. 96 - 64 CS 314,KR 16 No. 96 - 64 CS 314,6369541,Privada,1,4.6824619,-74.0496454,Chapinero
479,11,Bogotá D.C,11001,BOGOTÁ,"1,100,115,867",PATOLOGIA DIAGNOSTICA LIMITADA,"900,081,381",,CALLE 118 No 19 -52 CONSULTORIO 505 - Barrio:SANTA BARBARA OCC.,CALLE 118 No 19 -52 CONSULTORIO 505 - Barrio:SANTA BARBARA OCC.,7906867.      3014311893,Privada,2,4.6970306,-74.0385509,Usaquén
482,11,Bogotá D.C,11001,BOGOTÁ,"1,100,115,904",CENTRO DE SALUD CIRUGIA ESTETICA AMBULATORIA CLINICA DE CHARRY LTDA,"900,006,808",NO,KR 48 #  122 - 28,KR 48 #  122 - 28,2138331,Privada,1,4.6999481,-74.0583472,Suba
484,11,Bogotá D.C,11001,BOGOTÁ,"1,100,115,941",B S P CORPOLASER LTDA,"830,146,310",NO,KR 13 A No 102 86,KR 13 A No 102 86,6122605,Privada,1,4.7618301,-74.0351527,Usaquén
485,11,Bogotá D.C,11001,BOGOTÁ,"1,100,116,016",Fundacion la Casa de Bill,"830,147,172",,KR 36A Nº 54 - 77,KR 36A Nº 54 - 77,6940460,Privada,1,4.5651699,-74.1633681,Ciudad Bolivar
486,11,Bogotá D.C,11001,BOGOTÁ,"1,100,116,044",AUDIOCOM SAS,"814,003,448",NO,"KR 14 # 75-76 PISO 3, 4, Y  5","KR 14 # 75-76 PISO 3, 4, Y  5",(1) 742 09 04 - 3174374863,Privada,1,4.6754389,-74.0512977,Chapinero
487,11,Bogotá D.C,11001,BOGOTÁ,"1,100,116,069",Centro de Dermatologia y Cirugia Dermatologica del Country CDCD LTDA,"900,096,797",NO,Calle 83 # 16a 44 Consultorio303,Calle 83 # 16a 44 Consultorio303,071/7038176,Privada,1,4.6700461,-74.0596304,Chapinero
488,11,Bogotá D.C,11001,BOGOTÁ,"1,100,116,076",HORIZONTES ABA TERAPIA INTEGRAL LTDA,"900,053,354",NO,CRA 66 A 46 26,CRA 66 A 46 26,2222385 - 3103105333,Privada,1,4.6540418,-74.0990898,Teusaquillo
489,11,Bogotá D.C,11001,BOGOTÁ,"1,100,116,107",SOCIEDAD ONCOLOGICA ONCOCARE LTDA. SIGLA ONCOCARE LTDA,"900,078,685",NO,AV KR 20 # 80 91,AV KR 20 # 80 91,3207750,Privada,1,4.6749673,-74.0595563,Barrios Unidos
490,11,Bogotá D.C,11001,BOGOTÁ,"1,100,116,129",ELECTROFISIATRIA SAS,"900,103,925",NO,CL 112 # 70 B 28,CL 112 # 70 B 28,7441886 - 3164816124 - 3164714954 - 3204066331,Privada,3,4.6986543,-74.07150014539977,Suba
494,11,Bogotá D.C,11001,BOGOTÁ,"1,100,116,220",FUNDACION CREER EN LO NUESTRO,"900,044,836",NO,KR 20 # 45 A 08 OF 501,KR 20 # 45 A 08 OF 501,2854622,Privada,1,4.6339667,-74.07242594919498,Teusaquillo
495,11,Bogotá D.C,11001,BOGOTÁ,"1,100,116,237",OPTICA COLSANITAS SAS,"800,185,773",NO,AC 127 NO. 21 - 60 LC 112,AC 127 NO. 21 - 60 LC 112,6159432-3153059897,Privada,1,4.7036464,-74.0331045,Usaquén
496,11,Bogotá D.C,11001,BOGOTÁ,"1,100,116,239",CENTRO VASCULAR DEL LAGO LTDA,"830,047,504",NO,AC 116 # 9 - 72 CONSULTORIO 608,AC 116 # 9 - 72 CONSULTORIO 608,57 1  2153382,Privada,1,4.6993273,-74.0546532,Usaquén
497,11,Bogotá D.C,11001,BOGOTÁ,"1,100,116,245",CENTRO OFTALMOLOGICO GUSTAVO TAMAYO FERNANDEZ SA,"900,112,451",NO,CL 113 # 7 - 45 OF 906 TO B,CL 113 # 7 - 45 OF 906 TO B,6292882,Privada,1,4.6979522,-74.0598871,Suba
499,11,Bogotá D.C,11001,BOGOTÁ,"1,100,116,275",CIRU COUNTRY SERVICIOS MEDICOS SAS,"800,222,501",NO,KR 10 No. 96 - 25  CS 403,KR 10 No. 96 - 25  CS 403,6160557,Privada,1,4.5567527,-74.1254193,Tunjuelito
500,11,Bogotá D.C,11001,BOGOTÁ,"1,100,116,366",CENTRO INTEGRAL TERAPEUTICO DE MANO CITMA SAS,"900,113,999",NO,KR 20 # 45 A 08 CS 202 - 203 - 204,KR 20 # 45 A 08 CS 202 - 203 - 204,3400230,Privada,1,4.6339667,-74.07242594919498,Teusaquillo
501,11,Bogotá D.C,11001,BOGOTÁ,"1,100,116,369",LUXOTTICA OF COLOMBIA S.A.S,"900,108,281",,CARRERA 58D # 146- 51 LOCAL 145  - Barrio:COLINA,CARRERA 58D # 146- 51 LOCAL 145  - Barrio:COLINA,(57-1)5938860 EXT. 7041,Privada,31,4.7220754,-74.0696747,Suba
502,11,Bogotá D.C,11001,BOGOTÁ,"1,100,116,426",EMURACENTER LATINOAMERICA EU,"900,113,458",,CALLE 134 NO. 7 - 83 TORRE 3 PISO 4 CONSULTORIO 341,CALLE 134 NO. 7 - 83 TORRE 3 PISO 4 CONSULTORIO 341,6334711 - 6271493,Privada,1,4.742783,-74.125321,Suba
503,11,Bogotá D.C,11001,BOGOTÁ,"1,100,116,430",GNQ  MEDICINA ANTIENVEJECIMIENTO S A S SIGLA GNQ,"900,024,984",NO,CL 102 # 14 A 15 PISO 3,CL 102 # 14 A 15 PISO 3,7422244,Privada,1,4.6881404,-74.0541994,Usaquén
504,11,Bogotá D.C,11001,BOGOTÁ,"1,100,116,439",CENTRO CIENTIFICO INTERNACIONAL DE MEDICINA BIOLOGICA SAS,"830,079,801",NO,KR 24 # 45 A 33,KR 24 # 45 A 33,2878211,Privada,1,4.5845594,-74.1050598,Antonio Nariño
505,11,Bogotá D.C,11001,BOGOTÁ,"1,100,116,440",DENTAL SOLUTION LIMITADA,"900,028,902",NO,CL 183 # 51-65,CL 183 # 51-65,57 1 6795900 ext 105,Privada,2,4.7612162,-74.0162186,
506,11,Bogotá D.C,11001,BOGOTÁ,"1,100,116,443",CLINICAS ODONTOLOGICAS COODONTOLOGOS S.A.S,"830,118,704",NO,Autopista Nte. #103-25,AUTOP N # 103 25,2368470,Privada,1,4.5550695,-74.1156686,Rafael Uribe Uribe
507,11,Bogotá D.C,11001,BOGOTÁ,"1,100,116,446",ALEANDES SAS,"900,067,087",,CARRERA 17 N° 33 A 03,CARRERA 17 N° 33 A 03,3380353-3003258202,Privada,1,4.6151527,-74.0732067,Los Mártires
508,11,Bogotá D.C,11001,BOGOTÁ,"1,100,116,450",TPF CIRUJANOS Y CIA LTDA- NUEVA CLINICA LOS CEDROS,"900,090,619",NO,CL 137 # 19 42 PISO 1,CL 137 # 19 42 PISO 1,7433956,Privada,1,4.7179092,-74.0366539,Usaquén
509,11,Bogotá D.C,11001,BOGOTÁ,"1,100,116,458",ARTUNATHIE SAS,"830,145,567",NO,AC 68 # 57 82 PI 2,AC 68 # 57 82 PI 2,6302466,Privada,1,4.6749575,-74.0841894,Barrios Unidos
511,11,Bogotá D.C,11001,BOGOTÁ,"1,100,116,492","COOPERATIVA DE TRABAJO ASOCIADO SERVICIOS INTEGRALES EN SALUD ""SISCOOP CTA""","900,030,890",,CALLE 42 A # 13 33,CALLE 42 A # 13 33,4754244 - 7031648,Privada,1,4.599426,-74.2011037,
512,11,Bogotá D.C,11001,BOGOTÁ,"1,100,116,566",SERVIMEDIC SAS,"830,108,189",,CRA 7 A 123 94 piso 1 y 2,CRA 7 A 123 94 piso 1 y 2,2143155,Privada,1,4.5046333,-74.1102074,Usme
513,11,Bogotá D.C,11001,BOGOTÁ,"1,100,116,567",UMAF LIMITADA,"830,064,212",NO,CARRERA 47 No 105 - 38,CARRERA 47 No 105 - 38,5252426,Privada,1,4.5731881,-74.1587124,Ciudad Bolivar
514,11,Bogotá D.C,11001,BOGOTÁ,"1,100,116,572",DERMOSALUD S.A.S,"900,090,377",NO,"calle 127 bis no 19-25 cons 404,405,406 y 407","calle 127 bis no 19-25 cons 404,405,406 y 407",6145634-3208639403,Privada,1,4.7073325,-74.051413,Usaquén
515,11,Bogotá D.C,11001,BOGOTÁ,"1,100,116,660",ARCANGELES FUNDACION PARA LA REHABILITACION INTEGRAL,"900,109,866",NO,CL # 106 17A  43,CL # 106 17A  43,6 29 70 47 Ext 115-116,Privada,1,4.6190713,-74.1155799,Puente Aranda
516,11,Bogotá D.C,11001,BOGOTÁ,"1,100,116,754",CENTRO DE RECONOCIMIENTO DE CONDUCTORES ATENTO IPS LTDA,"900,096,095",NO,TV 60 # 124 - 20 LC 6  9 y 10,TV 60 # 124 - 20 LC 6  9 y 10,6176139,Privada,1,4.576456,-74.167729,Ciudad Bolivar
517,11,Bogotá D.C,11001,BOGOTÁ,"1,100,116,765",LANDMARK RADIOLOGIA DENTOFACIAL LTDA.,"900,089,131",NO,CL 53 B Nº 24 - 80 CS 714 - 713 - 707,CL 53 B Nº 24 - 80 CS 714 - 713 - 707,3460568/98,Privada,1,4.6435905,-74.0761533,Teusaquillo
519,11,Bogotá D.C,11001,BOGOTÁ,"1,100,116,864",SERVIVIR SERVICIOS MEDICOS INTEGRALES,"830,080,224",NO,CARRERA 71C No 3a-26,CARREA 71C No 3a-26,4140640,Privada,1,4.6967214,-74.081922,Suba
520,11,Bogotá D.C,11001,BOGOTÁ,"1,100,116,938",HOSPITAL MILITAR CENTRAL,"830,040,256",NO,TV 3c No 49-02,TV 3c No 49-02,"3486868- ext3001-3002, cel 3158653821",Pública,1,4.6385245,-74.0607185,Chapinero
522,11,Bogotá D.C,11001,BOGOTÁ,"1,100,116,971","PREVENCIÓN, ATENCIÓN E INVESTIGACIÓN EN SALUD LTDA, PAIS","900,085,600",NO,CRA 16 N° 84A-09 CS 505,CRA 16 N° 84A-09 CS 505,6217254,Privada,1,4.5902581,-74.0944554,Antonio Nariño
523,11,Bogotá D.C,11001,BOGOTÁ,"1,100,116,994",FUNDACIÓN MÉDICA SANTA MARÍA VIRGEN,"900,116,862",,CALLE 70A #110-43 PISO 1 - 2,CALLE 70A #110-43 PISO 1 - 2,4426547 - 4406532,Privada,1,4.7159505,-74.1362617,Engativá
524,11,Bogotá D.C,11001,BOGOTÁ,"1,100,117,001",CENTRO PENSAR LIMITADA,"830,077,128",NO,CL 142 # 18 A - 07,CL 142 # 18 A - 07,2581810,Privada,1,4.7187977,-74.0297348,Usaquén
525,11,Bogotá D.C,11001,BOGOTÁ,"1,100,117,087",ORALMEDIC CLINICAS ODONTOMEDICAS SAS,"900,130,447",NO,CALLE 22 SUR No. 26-30 PISO 2,CALLE 22 SUR No. 26-30 PISO 2,2726484,Privada,1,4.6115747,-74.1279838,Puente Aranda
526,11,Bogotá D.C,11001,BOGOTÁ,"1,100,117,093",MISION SALUD INTERNACIONAL SAS,"900,116,722",NO,CALLE 33 A # 78 A - 22 SUR - Barrio:KENNEDY CENTRAL,CALLE 33 A # 78 A - 22 SUR - Barrio:KENNEDY CENTRAL,2738435,Privada,2,4.5637469,-74.0983584,San Cristobal
527,11,Bogotá D.C,11001,BOGOTÁ,"1,100,117,125",OPTICAS ÉXITO Y CIA LTDA.,"830,096,452",NO,KR 9 Nº 15 - 52,KR 9 Nº 15 - 52,2433391,Privada,1,4.6696885,-74.0474304,Chapinero
528,11,Bogotá D.C,11001,BOGOTÁ,"1,100,117,155",MEDICAL CORPORATION S.A.S,"900,136,013",,Calle 90 # 12-44 Of. 308 BARRIO: CHICO,Calle 90 # 12-44 Of. 308 BARRIO: CHICO,3043972 - 3118441032,Privada,2,4.6834225,-74.0708586,Barrios Unidos
529,11,Bogotá D.C,11001,BOGOTÁ,"1,100,117,167",SALUD VISUAL EMPRESARIAL OCUPACIONAL EU,"900,135,971",,CALLE 19 No.8-81 oficina 1005,CALLE 19 No.8-81 oficina 1005,3365407,Privada,1,4.6571599,-74.1297501,Fontibón
531,11,Bogotá D.C,11001,BOGOTÁ,"1,100,117,172",INSTITUTO COLOMBIANO DE GENETICA Y ONCOLOGIA MOLECULAR  SAS / INCOGEM,"900,118,084",,KR 19 C # 86-14 OFICINA 701-702-604,KR 19 C # 86-14 OFICINA 701-702-604,6164902,Privada,1,4.5599382,-74.1501183,Ciudad Bolivar
532,11,Bogotá D.C,11001,BOGOTÁ,"1,100,117,197",AMBULANCIAS PRIMEROS AUXILIOS LTDA,"900,036,920",NO,KR 32 B # 2 43,KR 32 B # 2 43,2770977,Privada,1,4.6012546,-74.1080563,Puente Aranda
533,11,Bogotá D.C,11001,BOGOTÁ,"1,100,117,234",ODONTOLOGICOS TORRES MANCILLA LTDA-ORTOCID LTDA,"900,134,907",NO,Carrera 73 # 5C 27,Carrera 73 # 5C 27,2640515,Privada,1,4.639183,-74.138618,Kennedy
534,11,Bogotá D.C,11001,BOGOTÁ,"1,100,117,238",BIOMOLECULAR DIAGNOSTICA S.A.S.,"900,110,259",NO,"CRA 19A NO. 85-11 PISO 3,  PISO 4  403-404 y 405","CRA 19A NO. 85-11 PISO 3,  PISO 4  403-404 y 405","3002664, 3002915",Privada,1,4.671761050000001,-74.05805149650121,Chapinero
535,11,Bogotá D.C,11001,BOGOTÁ,"1,100,117,250",UNIDAD LASER Y PIEL S.A.S,"900,096,842",NO,CL 134 # 7 B 83 CS 413- 414- 415- 416-417,CL 134 # 7 B 83 CS 413- 414- 415- 416-417,6049844,Privada,1,4.742783,-74.125321,Suba
537,11,Bogotá D.C,11001,BOGOTÁ,"1,100,117,261",LACORSALUD SAS,"900,128,332",NO,CALLE 75 No.22-66,CALLE 75 No.22-66,4873232-2482052,Privada,1,4.7100428,-74.1212356,Engativá
